TimeUS,u_x,u_y,u_z
184200,0.001764,-0.001563,-0.000001
184565,0.001764,-0.001563,-0.000001
204207,0.001998,-0.003087,-0.000410
224254,0.001998,-0.003087,-0.000410
244201,0.001597,-0.004233,-0.000063
264191,0.001578,-0.003425,0.000007
284204,0.001630,-0.002136,0.000033
304211,0.001695,-0.001053,0.000033
324216,0.001747,-0.000785,0.000002
344257,0.001763,-0.000660,-0.000006
364206,0.001781,-0.000472,-0.000012
384240,0.001803,-0.000162,-0.000016
384259,0.001803,-0.000162,-0.000016
404270,0.001828,0.000254,-0.000018
424334,0.002038,-0.000636,-0.000214
444236,0.002038,-0.000636,-0.000214
464207,0.002037,-0.005160,-0.000271
484204,0.001859,-0.007161,-0.000154
504259,0.001816,-0.008643,-0.000149
524234,0.001709,-0.009610,-0.000056
544209,0.001643,-0.010481,-0.000063
564371,0.001602,-0.011163,-0.000096
584211,0.001524,-0.011554,-0.000100
584226,0.001524,-0.011554,-0.000100
604258,0.001524,-0.011554,-0.000100
624230,0.001547,-0.011992,-0.000268
644203,0.001471,-0.012120,-0.000246
664172,0.001471,-0.012120,-0.000246
684199,0.001219,-0.012380,-0.000068
704195,0.001192,-0.012493,-0.000128
724199,0.001192,-0.012493,-0.000128
744211,0.000952,-0.012666,0.000026
764284,0.000952,-0.012666,0.000026
784278,0.000757,-0.012814,0.000095
784300,0.000757,-0.012814,0.000095
804207,0.000642,-0.012867,0.000144
824191,0.000605,-0.012929,0.000105
844200,0.000528,-0.012952,0.000113
864194,0.000350,-0.012959,0.000248
884193,0.000350,-0.012959,0.000248
904229,0.000374,-0.013003,0.000099
924234,0.000319,-0.013154,0.000003
944213,0.000254,-0.013134,0.000021
964233,0.000159,-0.013143,0.000057
984234,0.000111,-0.013106,0.000027
984262,0.000111,-0.013106,0.000027
1004253,0.000015,-0.013057,0.000067
1024245,0.000015,-0.013057,0.000067
1044221,-0.000082,-0.012891,0.000151
1064210,-0.000104,-0.012681,0.000046
1084208,-0.000159,-0.012568,0.000049
1104215,-0.000228,-0.012460,0.000066
1124220,-0.000228,-0.012460,0.000066
1144209,-0.000419,-0.012263,0.000162
1164223,-0.000462,-0.012177,0.000133
1184196,-0.000536,-0.012073,0.000158
1184208,-0.000536,-0.012073,0.000158
1204264,-0.000604,-0.011923,0.000181
1224224,-0.000619,-0.011803,0.000147
1244195,-0.000619,-0.011803,0.000147
1264204,-0.000641,-0.011594,0.000065
1284332,-0.000689,-0.011496,0.000073
1304252,-0.000689,-0.011496,0.000073
1324202,-0.000802,-0.011337,0.000078
1344216,-0.000895,-0.011343,0.000091
1364193,-0.000940,-0.011271,0.000074
1384207,-0.000995,-0.011215,0.000067
1384220,-0.000995,-0.011215,0.000067
1404211,-0.001074,-0.011156,0.000091
1424218,-0.001142,-0.011103,0.000104
1444266,-0.001205,-0.011086,0.000114
1464251,-0.001232,-0.011022,0.000057
1484186,-0.001259,-0.010984,-0.000011
1504259,-0.001295,-0.010979,-0.000057
1524265,-0.001411,-0.010901,0.000049
1544237,-0.001461,-0.010756,0.000076
1564228,-0.001503,-0.010623,0.000091
1584215,-0.001547,-0.010525,0.000094
1584229,-0.001547,-0.010525,0.000094
1604208,-0.001591,-0.010365,0.000139
1624218,-0.001679,-0.010177,0.000239
1644210,-0.001679,-0.010177,0.000239
1664216,-0.001777,-0.009923,0.000271
1684234,-0.001853,-0.009849,0.000304
1704214,-0.001867,-0.009720,0.000281
1724207,-0.001867,-0.009720,0.000281
1744220,-0.001973,-0.009545,0.000307
1764219,-0.001976,-0.009439,0.000266
1784207,-0.001997,-0.009303,0.000263
1784222,-0.001997,-0.009303,0.000263
1804233,-0.002057,-0.009223,0.000275
1824210,-0.002103,-0.009163,0.000273
1844218,-0.002163,-0.009113,0.000273
1864198,-0.002231,-0.009081,0.000288
1884197,-0.002288,-0.009057,0.000276
1904210,-0.002361,-0.009044,0.000274
1924194,-0.002445,-0.009038,0.000289
1944198,-0.002520,-0.009045,0.000277
1964294,-0.002612,-0.009039,0.000295
1984190,-0.002647,-0.009048,0.000231
1984199,-0.002647,-0.009048,0.000231
2004246,-0.002720,-0.008976,0.000263
2024209,-0.002720,-0.008976,0.000263
2044191,-0.002805,-0.008800,0.000296
2064222,-0.002833,-0.008720,0.000302
2084209,-0.002830,-0.008600,0.000295
2104301,-0.002830,-0.008600,0.000295
2124212,-0.002875,-0.008408,0.000306
2144209,-0.002876,-0.008296,0.000306
2164215,-0.002887,-0.008223,0.000273
2184238,-0.002887,-0.008223,0.000273
2184264,-0.002887,-0.008223,0.000273
2204198,-0.002972,-0.008092,0.000311
2224230,-0.003036,-0.008072,0.000310
2244232,-0.003079,-0.008062,0.000285
2264318,-0.003131,-0.008071,0.000261
2284214,-0.003202,-0.008076,0.000261
2304208,-0.003270,-0.008106,0.000239
2324203,-0.003347,-0.008127,0.000234
2344212,-0.003422,-0.008142,0.000227
2364207,-0.003523,-0.008153,0.000257
2384214,-0.003599,-0.008192,0.000232
2384232,-0.003599,-0.008192,0.000232
2404206,-0.003692,-0.008230,0.000221
2424273,-0.003801,-0.008251,0.000251
2444208,-0.003884,-0.008291,0.000232
2464209,-0.003960,-0.008318,0.000213
2484206,-0.004054,-0.008349,0.000207
2504205,-0.004149,-0.008365,0.000204
2524202,-0.004198,-0.008306,0.000218
2544220,-0.004279,-0.008267,0.000242
2564195,-0.004327,-0.008264,0.000191
2584212,-0.004373,-0.008234,0.000178
2584226,-0.004373,-0.008234,0.000178
2604209,-0.004415,-0.008127,0.000222
2624192,-0.004412,-0.008113,0.000134
2644195,-0.004487,-0.008071,0.000154
2664239,-0.004552,-0.008037,0.000160
2684207,-0.004548,-0.007972,0.000121
2704225,-0.004565,-0.007926,0.000089
2724242,-0.004565,-0.007926,0.000089
2744200,-0.004631,-0.007864,0.000042
2764223,-0.004657,-0.007835,0.000012
2784184,-0.004679,-0.007755,0.000024
2784191,-0.004679,-0.007755,0.000024
2804238,-0.004710,-0.007695,0.000032
2824237,-0.004759,-0.007636,0.000064
2844230,-0.004759,-0.007636,0.000064
2864200,-0.004837,-0.007597,0.000034
2884370,-0.004881,-0.007597,0.000000
2904257,-0.004881,-0.007597,0.000000
2924481,-0.004924,-0.007465,0.000025
2944225,-0.004996,-0.007407,0.000074
2964214,-0.005044,-0.007395,0.000050
2984230,-0.005044,-0.007395,0.000050
2984249,-0.005044,-0.007395,0.000050
3004195,-0.005188,-0.007367,0.000066
3024199,-0.005263,-0.007355,0.000075
3044207,-0.005361,-0.007338,0.000110
3064206,-0.005386,-0.007264,0.000151
3084197,-0.005428,-0.007220,0.000151
3104229,-0.005458,-0.007188,0.000128
3124201,-0.005498,-0.007193,0.000078
3144203,-0.005570,-0.007160,0.000092
3164192,-0.005644,-0.007147,0.000090
3184199,-0.005685,-0.007168,0.000020
3184214,-0.005685,-0.007168,0.000020
3204210,-0.005765,-0.007149,0.000023
3224196,-0.005832,-0.007154,-0.000006
3244202,-0.005893,-0.007198,-0.000086
3264207,-0.006056,-0.007209,-0.000046
3284197,-0.006146,-0.007171,-0.000022
3304189,-0.006202,-0.007177,-0.000084
3324201,-0.006267,-0.007161,-0.000094
3344217,-0.006331,-0.007145,-0.000113
3364203,-0.006387,-0.007150,-0.000161
3384197,-0.006439,-0.007138,-0.000198
3384207,-0.006439,-0.007138,-0.000198
3404194,-0.006445,-0.007055,-0.000194
3424187,-0.006529,-0.007035,-0.000185
3444189,-0.006552,-0.006962,-0.000170
3464372,-0.006585,-0.006906,-0.000161
3484214,-0.006675,-0.006903,-0.000174
3504254,-0.006675,-0.006903,-0.000174
3524210,-0.006877,-0.006830,-0.000117
3544229,-0.006877,-0.006830,-0.000117
3564201,-0.006909,-0.006718,-0.000138
3584487,-0.006967,-0.006645,-0.000100
3584506,-0.006967,-0.006645,-0.000100
3604287,-0.006967,-0.006645,-0.000100
3624209,-0.007055,-0.006531,-0.000093
3644194,-0.007108,-0.006493,-0.000108
3664192,-0.007174,-0.006476,-0.000139
3684196,-0.007217,-0.006444,-0.000151
3704197,-0.007254,-0.006419,-0.000201
3724196,-0.007297,-0.006421,-0.000252
3744198,-0.007397,-0.006340,-0.000178
3764195,-0.007469,-0.006303,-0.000173
3784205,-0.007526,-0.006254,-0.000151
3784218,-0.007526,-0.006254,-0.000151
3804222,-0.007605,-0.006165,-0.000077
3824195,-0.007605,-0.006165,-0.000077
3844193,-0.007653,-0.006140,-0.000155
3864205,-0.007712,-0.006082,-0.000111
3884208,-0.007712,-0.006082,-0.000111
3904198,-0.007803,-0.006058,-0.000164
3924210,-0.007803,-0.006058,-0.000164
3944198,-0.007925,-0.005940,-0.000061
3964193,-0.007971,-0.005894,-0.000058
3984205,-0.008010,-0.005850,-0.000039
3984219,-0.008010,-0.005850,-0.000039
4004254,-0.008049,-0.005837,-0.000067
4024210,-0.008088,-0.005809,-0.000086
4044219,-0.008037,-0.005738,-0.000098
4064459,-0.008037,-0.005738,-0.000098
4084232,-0.007859,-0.005581,-0.000132
4104252,-0.007823,-0.005500,-0.000124
4124242,-0.007818,-0.005425,-0.000076
4144209,-0.007750,-0.005329,-0.000060
4164219,-0.007687,-0.005210,-0.000010
4184264,-0.007685,-0.005104,0.000104
4184299,-0.007685,-0.005104,0.000104
4204505,-0.007687,-0.005025,0.000185
4224631,-0.007712,-0.004932,0.000247
4244309,-0.007712,-0.004932,0.000247
4264237,-0.007726,-0.004890,0.000255
4284210,-0.007812,-0.004805,0.000267
4304212,-0.007879,-0.004740,0.000310
4324195,-0.007940,-0.004659,0.000359
4344201,-0.008068,-0.004642,0.000341
4364219,-0.008068,-0.004642,0.000341
4384206,-0.008232,-0.004516,0.000347
4384220,-0.008232,-0.004516,0.000347
4404206,-0.008268,-0.004475,0.000297
4424212,-0.008299,-0.004465,0.000218
4444220,-0.008326,-0.004471,0.000114
4464210,-0.008342,-0.004477,0.000024
4484259,-0.008381,-0.004490,-0.000062
4504250,-0.008408,-0.004460,-0.000111
4524235,-0.008408,-0.004460,-0.000111
4544201,-0.008395,-0.004360,-0.000184
4564245,-0.008315,-0.004269,-0.000180
4584239,-0.008254,-0.004178,-0.000179
4584261,-0.008254,-0.004178,-0.000179
4604284,-0.008254,-0.004178,-0.000179
4624250,-0.008191,-0.004089,-0.000179
4644208,-0.008132,-0.003973,-0.000208
4664209,-0.008132,-0.003973,-0.000208
4684235,-0.008078,-0.003867,-0.000168
4704215,-0.008001,-0.003697,-0.000125
4724223,-0.007941,-0.003580,-0.000059
4744233,-0.007848,-0.003477,-0.000015
4765241,-0.007848,-0.003477,-0.000015
4784229,-0.007674,-0.003385,-0.000034
4784254,-0.007674,-0.003385,-0.000034
4804463,-0.007282,-0.003196,-0.000036
4824208,-0.007131,-0.003106,-0.000017
4844213,-0.007088,-0.003046,-0.000009
4864213,-0.007069,-0.003003,-0.000023
4884637,-0.007077,-0.002992,-0.000069
4904212,-0.007126,-0.002904,0.000019
4924228,-0.007169,-0.002894,-0.000018
4944212,-0.007209,-0.002913,-0.000097
4964228,-0.007209,-0.002913,-0.000097
4984213,-0.007181,-0.002876,-0.000157
4984234,-0.007181,-0.002876,-0.000157
5004240,-0.007060,-0.002844,-0.000184
5024225,-0.006783,-0.002666,-0.000092
5044204,-0.006639,-0.002577,-0.000050
5064231,-0.006452,-0.002507,-0.000048
5084249,-0.006353,-0.002485,-0.000094
5104461,-0.006353,-0.002485,-0.000094
5124208,-0.006256,-0.002308,0.000073
5144440,-0.006245,-0.002347,-0.000050
5164227,-0.006287,-0.002301,-0.000027
5184389,-0.006368,-0.002233,0.000034
5184410,-0.006368,-0.002233,0.000034
5204199,-0.006402,-0.002201,0.000044
5224200,-0.006548,-0.002204,0.000026
5244201,-0.006707,-0.002190,0.000016
5264196,-0.006869,-0.002137,0.000086
5284222,-0.007041,-0.002160,0.000026
5304218,-0.007041,-0.002160,0.000026
5324198,-0.007414,-0.002122,0.000018
5344196,-0.007603,-0.002102,0.000022
5364198,-0.007787,-0.002165,-0.000082
5384229,-0.007966,-0.002109,-0.000022
5384246,-0.007966,-0.002109,-0.000022
5404196,-0.008081,-0.002015,0.000072
5424194,-0.008171,-0.001949,0.000140
5444195,-0.008332,-0.001823,0.000310
5464198,-0.008499,-0.001730,0.000425
5484198,-0.008669,-0.001745,0.000368
5504200,-0.008820,-0.001771,0.000286
5524206,-0.008897,-0.001702,0.000318
5544203,-0.008953,-0.001717,0.000226
5564198,-0.009015,-0.001679,0.000223
5584619,-0.009100,-0.001719,0.000099
5584651,-0.009100,-0.001719,0.000099
5604211,-0.009106,-0.001721,0.000039
5624180,-0.009182,-0.001653,0.000068
5644191,-0.009196,-0.001588,0.000106
5664187,-0.009208,-0.001585,0.000073
5684187,-0.009241,-0.001486,0.000181
5704180,-0.009273,-0.001401,0.000257
5724219,-0.009378,-0.001393,0.000195
5744183,-0.009502,-0.001260,0.000327
5764237,-0.009502,-0.001260,0.000327
5784222,-0.009668,-0.001119,0.000398
5784237,-0.009668,-0.001119,0.000398
5804201,-0.009745,-0.001090,0.000345
5824211,-0.009828,-0.001067,0.000262
5844224,-0.009930,-0.001116,0.000059
5864212,-0.010036,-0.001166,-0.000134
5884205,-0.010066,-0.001046,-0.000056
5904199,-0.010107,-0.000929,0.000003
5924205,-0.010107,-0.000929,0.000003
5944203,-0.010187,-0.000786,0.000002
5964210,-0.010240,-0.000766,-0.000051
5984207,-0.010289,-0.000697,-0.000018
5984224,-0.010289,-0.000697,-0.000018
6004331,-0.010295,-0.000658,-0.000037
6024207,-0.010241,-0.000623,-0.000039
6044216,-0.010207,-0.000599,-0.000067
6064208,-0.010114,-0.000562,-0.000055
6084201,-0.010051,-0.000534,-0.000090
6104210,-0.010051,-0.000534,-0.000090
6124187,-0.009956,-0.000441,-0.000087
6144204,-0.009921,-0.000398,-0.000091
6164220,-0.009897,-0.000324,-0.000058
6184194,-0.009877,-0.000274,-0.000052
6184213,-0.009877,-0.000274,-0.000052
6204200,-0.009877,-0.000274,-0.000052
6224203,-0.009932,-0.000194,-0.000126
6244218,-0.009932,-0.000194,-0.000126
6264205,-0.009824,-0.000026,-0.000042
6284230,-0.009778,0.000026,-0.000034
6304226,-0.009805,0.000127,0.000017
6324189,-0.009754,0.000185,0.000024
6344204,-0.009791,0.000247,0.000032
6364188,-0.009843,0.000296,0.000009
6384198,-0.009843,0.000296,0.000009
6384209,-0.009843,0.000296,0.000009
6404202,-0.009920,0.000446,0.000028
6424204,-0.009948,0.000516,0.000044
6444270,-0.009948,0.000516,0.000044
6464218,-0.009953,0.000613,0.000010
6484211,-0.009984,0.000709,0.000040
6504241,-0.009984,0.000709,0.000040
6524272,-0.009936,0.000874,0.000095
6544207,-0.009900,0.000904,0.000070
6564227,-0.009900,0.000904,0.000070
6584363,-0.009856,0.001010,0.000064
6584385,-0.009856,0.001010,0.000064
6604198,-0.009852,0.001049,0.000047
6624194,-0.009861,0.001093,0.000016
6644213,-0.009882,0.001146,0.000002
6664217,-0.009890,0.001199,-0.000014
6684204,-0.009878,0.001279,0.000017
6704202,-0.009806,0.001345,0.000068
6724204,-0.009831,0.001444,0.000106
6744223,-0.009883,0.001449,0.000001
6764275,-0.009901,0.001502,-0.000014
6784240,-0.009901,0.001502,-0.000014
6784258,-0.009901,0.001502,-0.000014
6804207,-0.009906,0.001718,0.000087
6824250,-0.009895,0.001814,0.000136
6844197,-0.009917,0.001824,0.000060
6864223,-0.009927,0.001862,0.000030
6884227,-0.009928,0.001953,0.000066
6904203,-0.009927,0.002045,0.000097
6924196,-0.009909,0.002109,0.000101
6944206,-0.009893,0.002189,0.000131
6964229,-0.009892,0.002240,0.000112
6984205,-0.009862,0.002290,0.000115
6984219,-0.009862,0.002290,0.000115
7004202,-0.009772,0.002305,0.000095
7024237,-0.009707,0.002335,0.000082
7044243,-0.009647,0.002362,0.000063
7064244,-0.009588,0.002396,0.000060
7084199,-0.009547,0.002461,0.000061
7104195,-0.009491,0.002531,0.000083
7124441,-0.009450,0.002597,0.000098
7144222,-0.009426,0.002644,0.000080
7164203,-0.009418,0.002712,0.000064
7184218,-0.009411,0.002777,0.000054
7184230,-0.009411,0.002777,0.000054
7204215,-0.009411,0.002777,0.000054
7224250,-0.009314,0.002846,0.000022
7244222,-0.009248,0.002872,0.000012
7264226,-0.009183,0.002926,0.000030
7284217,-0.009116,0.002995,0.000072
7304213,-0.009072,0.003050,0.000088
7324218,-0.009028,0.003110,0.000096
7344212,-0.008998,0.003184,0.000123
7364269,-0.008980,0.003227,0.000107
7384236,-0.008991,0.003256,0.000044
7384260,-0.008991,0.003256,0.000044
7404209,-0.008947,0.003332,0.000082
7424206,-0.008919,0.003380,0.000085
7444223,-0.008926,0.003429,0.000056
7464222,-0.008944,0.003473,0.000008
7484207,-0.008939,0.003537,0.000011
7504205,-0.008942,0.003589,-0.000008
7524202,-0.008870,0.003609,-0.000013
7544225,-0.008821,0.003624,-0.000029
7564216,-0.008766,0.003676,-0.000009
7584216,-0.008731,0.003735,0.000008
7584236,-0.008731,0.003735,0.000008
7604288,-0.008683,0.003766,0.000008
7624202,-0.008610,0.003781,0.000013
7644206,-0.008600,0.003864,0.000043
7664228,-0.008600,0.003864,0.000043
7684198,-0.008564,0.003936,0.000009
7704208,-0.008482,0.004009,0.000074
7724219,-0.008428,0.004036,0.000075
7744203,-0.008409,0.004075,0.000046
7764229,-0.008388,0.004138,0.000051
7784196,-0.008375,0.004184,0.000031
7784209,-0.008375,0.004184,0.000031
7804193,-0.008351,0.004263,0.000062
7824217,-0.008324,0.004334,0.000084
7844292,-0.008295,0.004395,0.000093
7864256,-0.008276,0.004444,0.000071
7884206,-0.008253,0.004531,0.000092
7904214,-0.008280,0.004583,0.000021
7924652,-0.008250,0.004662,0.000033
7944242,-0.008185,0.004788,0.000140
7964228,-0.008214,0.004822,0.000037
7984218,-0.008216,0.004889,0.000011
7984234,-0.008216,0.004889,0.000011
8004211,-0.008178,0.005003,0.000066
8024270,-0.008107,0.004993,0.000032
8044214,-0.008036,0.005028,0.000045
8064201,-0.007957,0.005001,0.000008
8084200,-0.007833,0.005061,0.000087
8104227,-0.007735,0.005094,0.000127
8124230,-0.007735,0.005094,0.000127
8144212,-0.007617,0.005193,0.000146
8164204,-0.007581,0.005249,0.000153
8184202,-0.007554,0.005204,0.000051
8184217,-0.007554,0.005204,0.000051
8204219,-0.007478,0.005228,0.000065
8224220,-0.007384,0.005295,0.000134
8244199,-0.007367,0.005313,0.000081
8264203,-0.007367,0.005313,0.000081
8284200,-0.007299,0.005421,0.000099
8304200,-0.007295,0.005459,0.000055
8324222,-0.007274,0.005526,0.000060
8344208,-0.007203,0.005534,0.000055
8364216,-0.007203,0.005534,0.000055
8384195,-0.007148,0.005595,0.000006
8384206,-0.007148,0.005595,0.000006
8404215,-0.007148,0.005595,0.000006
8424192,-0.007072,0.005632,-0.000056
8444192,-0.007022,0.005688,-0.000045
8464223,-0.007022,0.005688,-0.000045
8484197,-0.006920,0.005834,0.000020
8504205,-0.006871,0.005913,0.000060
8524265,-0.006871,0.005913,0.000060
8544212,-0.006759,0.005963,0.000077
8564219,-0.006759,0.005963,0.000077
8584209,-0.006595,0.005909,0.000060
8584227,-0.006595,0.005909,0.000060
8604212,-0.006529,0.005917,0.000060
8624200,-0.006448,0.005879,0.000036
8644217,-0.006375,0.005877,0.000044
8664247,-0.006291,0.005901,0.000086
8684209,-0.006290,0.005921,0.000037
8704200,-0.006257,0.005972,0.000035
8724204,-0.006282,0.006007,-0.000029
8744206,-0.006284,0.006054,-0.000051
8764223,-0.006231,0.006146,0.000029
8784206,-0.006218,0.006238,0.000048
8784222,-0.006218,0.006238,0.000048
8804207,-0.006235,0.006321,0.000048
8824195,-0.006194,0.006348,0.000049
8844199,-0.006175,0.006386,0.000043
8864215,-0.006195,0.006390,-0.000023
8884207,-0.006216,0.006516,-0.000003
8904203,-0.006203,0.006579,0.000006
8924210,-0.006186,0.006644,0.000007
8944228,-0.006156,0.006703,0.000039
8964208,-0.006084,0.006782,0.000115
8984202,-0.006124,0.006891,0.000075
8984218,-0.006124,0.006891,0.000075
9004216,-0.006136,0.006905,-0.000002
9024225,-0.006103,0.006967,0.000011
9044259,-0.006031,0.006960,0.000015
9064196,-0.005979,0.006950,0.000006
9084202,-0.005925,0.006968,-0.000001
9104194,-0.005869,0.007019,0.000024
9124224,-0.005817,0.007068,0.000041
9144204,-0.005807,0.007098,0.000007
9164188,-0.005807,0.007163,-0.000017
9184197,-0.005795,0.007221,-0.000033
9184209,-0.005795,0.007221,-0.000033
9204212,-0.005737,0.007210,-0.000052
9224230,-0.005651,0.007214,-0.000005
9244200,-0.005577,0.007251,0.000039
9264219,-0.005508,0.007200,0.000017
9284202,-0.005469,0.007167,-0.000013
9304205,-0.005432,0.007172,-0.000049
9324249,-0.005366,0.007214,-0.000021
9344246,-0.005366,0.007214,-0.000021
9364219,-0.005230,0.007129,-0.000031
9384205,-0.005192,0.007135,-0.000059
9384217,-0.005192,0.007135,-0.000059
9404210,-0.005214,0.007129,-0.000169
9424207,-0.005214,0.007129,-0.000169
9444216,-0.005063,0.007263,-0.000036
9464206,-0.005046,0.007337,-0.000041
9484202,-0.005014,0.007419,-0.000031
9504209,-0.005000,0.007499,-0.000020
9524219,-0.004921,0.007503,0.000031
9544223,-0.004873,0.007536,0.000032
9564305,-0.004859,0.007554,-0.000003
9584201,-0.004768,0.007543,0.000050
9584214,-0.004768,0.007543,0.000050
9604214,-0.004699,0.007527,0.000060
9624222,-0.004691,0.007428,-0.000040
9644209,-0.004585,0.007348,0.000004
9664200,-0.004535,0.007281,-0.000028
9684198,-0.004501,0.007250,-0.000075
9704193,-0.004454,0.007253,-0.000078
9724201,-0.004405,0.007278,-0.000079
9744204,-0.004344,0.007316,-0.000057
9764488,-0.004313,0.007375,-0.000067
9784196,-0.004307,0.007427,-0.000117
9784208,-0.004307,0.007427,-0.000117
9804200,-0.004289,0.007471,-0.000153
9824230,-0.004267,0.007567,-0.000161
9844238,-0.004236,0.007638,-0.000169
9864211,-0.004196,0.007710,-0.000162
9884210,-0.004142,0.007800,-0.000125
9904240,-0.004097,0.007884,-0.000100
9924503,-0.004137,0.007962,-0.000202
9944278,-0.004071,0.007972,-0.000190
9964218,-0.004071,0.007972,-0.000190
9984202,-0.003988,0.008052,-0.000182
9984216,-0.003988,0.008052,-0.000182
10004262,-0.003951,0.008099,-0.000179
10024239,-0.003951,0.008099,-0.000179
10044217,-0.003853,0.008177,-0.000116
10064200,-0.003819,0.008182,-0.000121
10084209,-0.003818,0.008191,-0.000175
10104209,-0.003734,0.008244,-0.000110
10124220,-0.003683,0.008288,-0.000093
10144213,-0.003592,0.008282,-0.000043
10164199,-0.003564,0.008370,-0.000032
10184208,-0.003487,0.008382,0.000026
10184229,-0.003487,0.008382,0.000026
10204208,-0.003552,0.008449,-0.000106
10224214,-0.003532,0.008458,-0.000142
10244211,-0.003412,0.008506,-0.000027
10264199,-0.003355,0.008544,-0.000013
10284203,-0.003326,0.008566,-0.000004
10304195,-0.003293,0.008638,0.000002
10324527,-0.003211,0.008713,0.000075
10344224,-0.003188,0.008757,0.000055
10364193,-0.003155,0.008829,0.000057
10384194,-0.003083,0.008903,0.000097
10384203,-0.003083,0.008903,0.000097
10404192,-0.003099,0.008959,0.000029
10424169,-0.003046,0.009031,0.000048
10444215,-0.002940,0.009112,0.000138
10464192,-0.003032,0.009163,-0.000063
10484198,-0.002937,0.009238,-0.000001
10504210,-0.002850,0.009293,0.000043
10524216,-0.002743,0.009331,0.000113
10544301,-0.002699,0.009225,0.000079
10564263,-0.002683,0.009213,0.000013
10584183,-0.002683,0.009213,0.000013
10584203,-0.002683,0.009213,0.000013
10604210,-0.002530,0.009084,0.000035
10624222,-0.002534,0.009044,-0.000078
10644215,-0.002452,0.009036,-0.000052
10664212,-0.002380,0.008987,-0.000042
10684209,-0.002324,0.008959,-0.000055
10704266,-0.002215,0.008929,0.000005
10724333,-0.002215,0.008929,0.000005
10744207,-0.002069,0.008916,0.000031
10764203,-0.002063,0.008863,-0.000043
10784203,-0.001974,0.008829,-0.000010
10784215,-0.001974,0.008829,-0.000010
10804234,-0.001899,0.008826,-0.000001
10824203,-0.001809,0.008800,0.000043
10844216,-0.001736,0.008817,0.000060
10864220,-0.001673,0.008857,0.000060
10884200,-0.001689,0.008898,-0.000053
10904211,-0.001597,0.008966,-0.000019
10924196,-0.001513,0.009021,0.000014
10944200,-0.001479,0.009075,-0.000025
10964201,-0.001440,0.009144,-0.000070
10984205,-0.001361,0.009210,-0.000032
10984218,-0.001361,0.009210,-0.000032
11004206,-0.001325,0.009190,-0.000068
11024291,-0.001210,0.009167,0.000011
11044211,-0.001143,0.009185,0.000005
11064196,-0.001069,0.009219,0.000014
11084209,-0.001069,0.009219,0.000014
11104189,-0.000955,0.009138,0.000011
11124208,-0.000898,0.009155,0.000020
11144200,-0.000796,0.009160,0.000074
11164210,-0.000796,0.009160,0.000074
11184380,-0.000687,0.009209,0.000064
11184394,-0.000687,0.009209,0.000064
11204222,-0.000662,0.009233,0.000020
11224208,-0.000578,0.009246,0.000053
11244200,-0.000461,0.009212,0.000136
11264206,-0.000393,0.009196,0.000146
11284200,-0.000342,0.009191,0.000139
11304220,-0.000282,0.009188,0.000147
11324227,-0.000234,0.009204,0.000124
11344211,-0.000154,0.009240,0.000151
11364228,-0.000154,0.009240,0.000151
11384203,-0.000051,0.009298,0.000118
11384216,-0.000051,0.009298,0.000118
11405237,0.000034,0.009334,0.000167
11424293,0.000034,0.009334,0.000167
11444285,0.000066,0.009371,0.000116
11464200,0.000190,0.009376,0.000121
11484200,0.000190,0.009376,0.000121
11504198,0.000310,0.009488,0.000088
11524208,0.000335,0.009460,0.000051
11544215,0.000429,0.009431,0.000110
11564203,0.000463,0.009415,0.000084
11584200,0.000516,0.009351,0.000099
11584213,0.000516,0.009351,0.000099
11604290,0.000582,0.009287,0.000139
11624196,0.000620,0.009233,0.000138
11644202,0.000649,0.009224,0.000105
11664210,0.000685,0.009223,0.000069
11684206,0.000715,0.009243,0.000024
11704242,0.000715,0.009243,0.000024
11724190,0.000802,0.009195,0.000008
11744201,0.000826,0.009157,-0.000018
11764200,0.000872,0.009216,-0.000048
11784208,0.000957,0.009265,-0.000033
11784222,0.000957,0.009265,-0.000033
11804197,0.001036,0.009293,-0.000023
11824223,0.001112,0.009311,0.000005
11844231,0.001112,0.009311,0.000005
11864209,0.001242,0.009246,0.000060
11884375,0.001283,0.009238,0.000050
11904231,0.001283,0.009238,0.000050
11924213,0.001391,0.009235,0.000031
11944214,0.001483,0.009246,0.000069
11964215,0.001566,0.009260,0.000092
11984222,0.001592,0.009305,0.000022
11984240,0.001592,0.009305,0.000022
12004357,0.001678,0.009306,0.000057
12024253,0.001678,0.009306,0.000057
12044204,0.001789,0.009221,0.000099
12064256,0.001817,0.009174,0.000076
12084211,0.001861,0.009172,0.000067
12104218,0.001869,0.009093,0.000039
12124262,0.001969,0.008969,0.000127
12144213,0.001990,0.008939,0.000100
12164197,0.002096,0.008973,0.000138
12184216,0.002185,0.008914,0.000213
12184232,0.002185,0.008914,0.000213
12204211,0.002230,0.008971,0.000164
12224267,0.002230,0.008971,0.000164
12244207,0.002282,0.008954,0.000099
12264208,0.002335,0.008956,0.000097
12284204,0.002419,0.009032,0.000084
12304221,0.002487,0.009011,0.000111
12324245,0.002487,0.009011,0.000111
12344210,0.002585,0.009026,0.000065
12364192,0.002653,0.009034,0.000075
12384189,0.002736,0.009025,0.000108
12384197,0.002736,0.009025,0.000108
12404215,0.002795,0.009043,0.000095
12424201,0.002831,0.009066,0.000051
12444219,0.002904,0.009075,0.000055
12464209,0.002973,0.009074,0.000057
12484204,0.003052,0.009066,0.000086
12504203,0.003090,0.009080,0.000048
12524279,0.003090,0.009080,0.000048
12544222,0.003229,0.008969,0.000113
12564218,0.003226,0.008927,0.000062
12584211,0.003221,0.008814,0.000058
12584229,0.003221,0.008814,0.000058
12604640,0.003285,0.008774,0.000080
12624221,0.003291,0.008689,0.000065
12644264,0.003297,0.008647,0.000022
12664203,0.003339,0.008601,0.000023
12684198,0.003394,0.008571,0.000028
12704206,0.003442,0.008547,0.000017
12724287,0.003496,0.008511,0.000018
12744267,0.003496,0.008511,0.000018
12764263,0.003508,0.008419,0.000021
12784206,0.003581,0.008310,0.000013
12784221,0.003581,0.008310,0.000013
12804200,0.003575,0.008211,-0.000005
12824570,0.003577,0.008125,-0.000017
12844220,0.003577,0.008125,-0.000017
12864213,0.003673,0.008048,-0.000024
12884208,0.003720,0.008011,-0.000029
12904201,0.003782,0.007988,-0.000021
12924201,0.003818,0.007914,0.000005
12944205,0.003878,0.007942,-0.000037
12964203,0.003938,0.007983,-0.000100
12984209,0.004046,0.007981,-0.000074
12984222,0.004046,0.007981,-0.000074
13004203,0.004124,0.007986,-0.000089
13024697,0.004124,0.007986,-0.000089
13044197,0.004179,0.007853,-0.000075
13064195,0.004171,0.007808,-0.000121
13084609,0.004179,0.007761,-0.000155
13104220,0.004202,0.007707,-0.000146
13124201,0.004227,0.007610,-0.000094
13144301,0.004227,0.007610,-0.000094
13164221,0.004283,0.007486,-0.000073
13184207,0.004329,0.007452,-0.000053
13184224,0.004329,0.007452,-0.000053
13204254,0.004363,0.007450,-0.000077
13224262,0.004414,0.007437,-0.000073
13244416,0.004485,0.007430,-0.000060
13264207,0.004539,0.007452,-0.000086
13284208,0.004617,0.007483,-0.000094
13304204,0.004734,0.007472,-0.000021
13324579,0.004818,0.007483,0.000002
13344215,0.004919,0.007502,0.000036
13364212,0.005007,0.007540,0.000037
13384226,0.005085,0.007560,0.000036
13384242,0.005085,0.007560,0.000036
13404217,0.005171,0.007570,0.000066
13424242,0.005251,0.007610,0.000053
13444258,0.005331,0.007634,0.000056
13464211,0.005419,0.007663,0.000056
13484203,0.005525,0.007664,0.000100
13504201,0.005606,0.007664,0.000125
13524235,0.005571,0.007652,0.000041
13544222,0.005631,0.007594,0.000093
13564224,0.005673,0.007548,0.000117
13584214,0.005629,0.007510,0.000051
13584229,0.005629,0.007510,0.000051
13604213,0.005629,0.007447,0.000045
13624233,0.005672,0.007359,0.000105
13644211,0.005666,0.007272,0.000112
13664201,0.005736,0.007230,0.000128
13684200,0.005793,0.007222,0.000098
13704315,0.005793,0.007222,0.000098
13724204,0.005812,0.007270,-0.000012
13744205,0.005904,0.007235,-0.000060
13764477,0.005980,0.007230,-0.000075
13784205,0.006063,0.007213,-0.000078
13784218,0.006063,0.007213,-0.000078
13804211,0.006139,0.007235,-0.000138
13824231,0.006139,0.007235,-0.000138
13844484,0.006200,0.007101,-0.000131
13864226,0.006237,0.007012,-0.000089
13884225,0.006251,0.006974,-0.000130
13904211,0.006296,0.006920,-0.000119
13924229,0.006356,0.006869,-0.000099
13944235,0.006356,0.006869,-0.000099
13964218,0.006432,0.006820,-0.000148
13984220,0.006507,0.006781,-0.000127
13984241,0.006507,0.006781,-0.000127
14005392,0.006594,0.006723,-0.000067
14024233,0.006621,0.006711,-0.000116
14044301,0.006606,0.006648,-0.000142
14064220,0.006638,0.006597,-0.000140
14084201,0.006693,0.006521,-0.000095
14104210,0.006641,0.006459,-0.000133
14124239,0.006629,0.006380,-0.000123
14144434,0.006640,0.006315,-0.000109
14164239,0.006640,0.006315,-0.000109
14184201,0.006717,0.006237,-0.000096
14184216,0.006717,0.006237,-0.000096
14204197,0.006771,0.006190,-0.000062
14224217,0.006782,0.006229,-0.000177
14244203,0.006832,0.006222,-0.000205
14264198,0.006931,0.006170,-0.000139
14284204,0.007020,0.006121,-0.000077
14304208,0.007098,0.006090,-0.000051
14324214,0.007159,0.006099,-0.000085
14344281,0.007159,0.006099,-0.000085
14364197,0.007327,0.006093,-0.000090
14384199,0.007408,0.006071,-0.000075
14384211,0.007408,0.006071,-0.000075
14404209,0.007485,0.006076,-0.000117
14424213,0.007489,0.006009,-0.000083
14444212,0.007524,0.005906,-0.000017
14464191,0.007556,0.005864,-0.000024
14484190,0.007590,0.005822,-0.000012
14504266,0.007626,0.005779,-0.000003
14524202,0.007675,0.005716,0.000008
14544245,0.007725,0.005662,0.000016
14564222,0.007689,0.005597,0.000021
14584225,0.007688,0.005526,0.000035
14584247,0.007688,0.005526,0.000035
14604214,0.007719,0.005465,0.000061
14624223,0.007737,0.005421,0.000050
14644221,0.007760,0.005398,0.000020
14664307,0.007703,0.005324,0.000014
14684209,0.007625,0.005222,0.000042
14704224,0.007659,0.005177,0.000047
14724468,0.007602,0.005135,0.000002
14744205,0.007567,0.005078,-0.000018
14764187,0.007567,0.005078,-0.000018
14784211,0.007747,0.004974,0.000053
14784228,0.007747,0.004974,0.000053
14804205,0.007753,0.004937,0.000023
14824213,0.007857,0.004923,0.000023
14844227,0.007941,0.004906,-0.000000
14864201,0.007965,0.004812,0.000049
14884201,0.008002,0.004774,0.000023
14904210,0.008034,0.004735,-0.000002
14924200,0.008163,0.004687,0.000020
14944283,0.008198,0.004675,-0.000055
14964206,0.008252,0.004630,-0.000066
14984218,0.008308,0.004559,-0.000032
14984234,0.008308,0.004559,-0.000032
15004214,0.008339,0.004532,-0.000079
15024249,0.008363,0.004512,-0.000147
15044199,0.008336,0.004446,-0.000172
15064206,0.008336,0.004375,-0.000180
15084403,0.008346,0.004304,-0.000172
15104198,0.008288,0.004254,-0.000214
15124216,0.008276,0.004188,-0.000217
15144214,0.008273,0.004124,-0.000220
15164207,0.008262,0.004063,-0.000225
15184210,0.008267,0.003973,-0.000196
15184226,0.008267,0.003973,-0.000196
15204226,0.008283,0.003947,-0.000232
15224215,0.008283,0.003947,-0.000232
15244256,0.008400,0.003804,-0.000156
15264213,0.008438,0.003773,-0.000165
15284221,0.008492,0.003752,-0.000184
15304207,0.008568,0.003693,-0.000133
15324229,0.008637,0.003653,-0.000118
15344221,0.008708,0.003632,-0.000123
15364278,0.008708,0.003632,-0.000123
15384209,0.008847,0.003587,-0.000136
15384237,0.008847,0.003587,-0.000136
15404230,0.008933,0.003509,-0.000077
15424208,0.008996,0.003493,-0.000099
15444210,0.009081,0.003385,0.000015
15464203,0.009169,0.003265,0.000152
15484198,0.009216,0.003236,0.000131
15504205,0.009246,0.003227,0.000081
15524213,0.009292,0.003203,0.000082
15544206,0.009292,0.003203,0.000082
15564242,0.009220,0.003133,0.000049
15584212,0.009208,0.003107,-0.000006
15584229,0.009208,0.003107,-0.000006
15604196,0.009222,0.003021,0.000037
15624203,0.009236,0.002931,0.000082
15644236,0.009266,0.002899,0.000065
15664222,0.009256,0.002913,-0.000013
15684195,0.009267,0.002928,-0.000090
15704202,0.009307,0.002883,-0.000086
15724506,0.009334,0.002779,0.000011
15744200,0.009358,0.002744,-0.000028
15764195,0.009395,0.002733,-0.000082
15784192,0.009431,0.002626,-0.000014
15784202,0.009431,0.002626,-0.000014
15804201,0.009392,0.002557,-0.000011
15824214,0.009373,0.002494,-0.000008
15844205,0.009371,0.002455,-0.000021
15864209,0.009359,0.002407,-0.000022
15884249,0.009441,0.002354,-0.000021
15904227,0.009426,0.002324,-0.000068
15924213,0.009414,0.002261,-0.000072
15944209,0.009416,0.002188,-0.000053
15964224,0.009416,0.002188,-0.000053
15984197,0.009428,0.002052,-0.000058
15984236,0.009428,0.002052,-0.000058
16004221,0.009440,0.001987,-0.000055
16024232,0.009440,0.001987,-0.000055
16044211,0.009364,0.001857,-0.000083
16064206,0.009326,0.001798,-0.000069
16084227,0.009292,0.001728,-0.000076
16104207,0.009262,0.001651,-0.000058
16124234,0.009265,0.001553,-0.000032
16144212,0.009266,0.001471,-0.000009
16164198,0.009279,0.001455,-0.000074
16184196,0.009305,0.001360,-0.000036
16184206,0.009305,0.001360,-0.000036
16204213,0.009316,0.001282,-0.000019
16224596,0.009330,0.001193,0.000006
16244203,0.009298,0.001153,-0.000010
16264194,0.009269,0.001145,-0.000084
16284200,0.009253,0.001054,-0.000037
16304215,0.009230,0.000966,-0.000004
16324195,0.009224,0.000955,-0.000078
16344195,0.009205,0.000823,0.000043
16364192,0.009205,0.000778,0.000035
16384203,0.009206,0.000729,0.000030
16384217,0.009206,0.000729,0.000030
16404210,0.009225,0.000704,-0.000012
16424183,0.009225,0.000704,-0.000012
16444223,0.009243,0.000666,-0.000030
16464408,0.009295,0.000551,-0.000034
16484209,0.009323,0.000491,-0.000028
16504272,0.009341,0.000415,-0.000013
16524211,0.009382,0.000379,-0.000034
16544222,0.009382,0.000379,-0.000034
16564240,0.009444,0.000243,0.000001
16584197,0.009469,0.000167,0.000027
16584210,0.009469,0.000167,0.000027
16604219,0.009407,0.000098,0.000059
16624209,0.009357,-0.000004,0.000133
16644213,0.009343,-0.000034,0.000098
16664214,0.009345,-0.000091,0.000104
16684220,0.009347,-0.000125,0.000068
16704210,0.009368,-0.000199,0.000095
16724205,0.009393,-0.000225,0.000051
16744221,0.009424,-0.000278,0.000040
16764214,0.009454,-0.000343,0.000042
16784200,0.009471,-0.000436,0.000084
16784213,0.009471,-0.000436,0.000084
16804211,0.009480,-0.000555,0.000170
16824209,0.009466,-0.000700,0.000296
16844352,0.009466,-0.000700,0.000296
16864199,0.009540,-0.000747,0.000195
16884198,0.009559,-0.000814,0.000202
16904201,0.009598,-0.000857,0.000159
16924204,0.009638,-0.000862,0.000082
16944200,0.009662,-0.000893,0.000035
16964215,0.009689,-0.000954,0.000038
16984202,0.009704,-0.001019,0.000058
16984214,0.009704,-0.001019,0.000058
17004203,0.009709,-0.001060,0.000041
17024302,0.009712,-0.001108,0.000029
17044252,0.009573,-0.001103,0.000013
17064291,0.009479,-0.001118,0.000002
17084238,0.009392,-0.001159,0.000020
17104273,0.009310,-0.001195,0.000018
17124216,0.009275,-0.001229,-0.000001
17144227,0.009242,-0.001281,-0.000002
17164211,0.009220,-0.001336,0.000004
17184219,0.009190,-0.001422,0.000046
17184239,0.009190,-0.001422,0.000046
17204215,0.009195,-0.001490,0.000054
17224210,0.009189,-0.001559,0.000065
17244208,0.009189,-0.001559,0.000065
17264210,0.009217,-0.001669,0.000025
17284218,0.009217,-0.001669,0.000025
17304414,0.009247,-0.001796,0.000020
17324209,0.009263,-0.001858,0.000004
17344204,0.009288,-0.001918,-0.000018
17364295,0.009288,-0.001918,-0.000018
17384204,0.009312,-0.002053,-0.000035
17384219,0.009312,-0.002053,-0.000035
17404207,0.009289,-0.002144,0.000009
17424220,0.009204,-0.002240,0.000092
17444228,0.009156,-0.002268,0.000055
17464209,0.009144,-0.002281,-0.000014
17484199,0.009187,-0.002372,-0.000021
17504203,0.009143,-0.002410,-0.000050
17524271,0.009094,-0.002491,-0.000020
17544208,0.009066,-0.002561,-0.000010
17564230,0.009049,-0.002629,-0.000005
17584194,0.009028,-0.002676,-0.000018
17584205,0.009028,-0.002676,-0.000018
17604211,0.009018,-0.002747,-0.000021
17624221,0.008936,-0.002820,0.000042
17644195,0.008863,-0.002862,0.000048
17664195,0.008816,-0.002908,0.000057
17684199,0.008816,-0.002908,0.000057
17704208,0.008777,-0.002984,0.000004
17724215,0.008747,-0.003039,0.000003
17744200,0.008721,-0.003099,0.000002
17764244,0.008717,-0.003123,-0.000056
17784301,0.008717,-0.003123,-0.000056
17784319,0.008717,-0.003123,-0.000056
17804205,0.008679,-0.003282,-0.000002
17824227,0.008686,-0.003343,-0.000019
17844234,0.008653,-0.003439,0.000045
17864236,0.008664,-0.003475,0.000007
17884202,0.008695,-0.003502,-0.000058
17904208,0.008696,-0.003582,-0.000054
17924204,0.008689,-0.003658,-0.000047
17944218,0.008693,-0.003716,-0.000071
17964218,0.008686,-0.003789,-0.000059
17984198,0.008695,-0.003860,-0.000072
17984216,0.008695,-0.003860,-0.000072
18004218,0.008691,-0.003915,-0.000090
18024214,0.008661,-0.003979,-0.000088
18044207,0.008584,-0.003975,-0.000121
18064213,0.008521,-0.004005,-0.000123
18084213,0.008521,-0.004005,-0.000123
18104221,0.008390,-0.004127,-0.000065
18124198,0.008364,-0.004151,-0.000112
18144208,0.008335,-0.004209,-0.000127
18164211,0.008274,-0.004330,-0.000034
18184196,0.008254,-0.004399,-0.000025
18184206,0.008254,-0.004399,-0.000025
18204199,0.008276,-0.004400,-0.000120
18224203,0.008258,-0.004469,-0.000115
18244222,0.008250,-0.004546,-0.000098
18264220,0.008245,-0.004594,-0.000112
18284200,0.008230,-0.004674,-0.000091
18304211,0.008220,-0.004753,-0.000073
18324202,0.008193,-0.004840,-0.000026
18344227,0.008196,-0.004894,-0.000033
18364198,0.008147,-0.004908,-0.000038
18384190,0.008138,-0.004975,-0.000042
18384199,0.008138,-0.004975,-0.000042
18404184,0.008066,-0.005010,0.000002
18424194,0.008034,-0.005020,-0.000019
18444209,0.008003,-0.005045,-0.000033
18464197,0.007965,-0.005082,-0.000022
18484208,0.007933,-0.005126,-0.000015
18504225,0.007933,-0.005126,-0.000015
18524214,0.007872,-0.005196,-0.000026
18544228,0.007836,-0.005229,-0.000026
18564232,0.007836,-0.005229,-0.000026
18584213,0.007676,-0.005229,-0.000007
18584232,0.007676,-0.005229,-0.000007
18604224,0.007622,-0.005255,0.000006
18624226,0.007585,-0.005263,-0.000023
18644262,0.007585,-0.005263,-0.000023
18664257,0.007487,-0.005311,0.000053
18684208,0.007283,-0.005338,0.000139
18704207,0.007284,-0.005326,0.000046
18724205,0.007255,-0.005344,0.000021
18744223,0.007235,-0.005374,-0.000000
18764210,0.007225,-0.005418,-0.000030
18784197,0.007190,-0.005485,-0.000012
18784209,0.007190,-0.005485,-0.000012
18804209,0.007098,-0.005503,0.000018
18824183,0.007098,-0.005503,0.000018
18844202,0.007126,-0.005634,-0.000039
18864203,0.007138,-0.005733,-0.000044
18884198,0.007111,-0.005857,0.000017
18904200,0.007097,-0.005946,0.000025
18924209,0.007132,-0.005998,-0.000049
18944196,0.007118,-0.006079,-0.000044
18964204,0.007073,-0.006192,0.000020
18984197,0.007078,-0.006265,-0.000014
18984208,0.007078,-0.006265,-0.000014
19004217,0.007078,-0.006265,-0.000014
19024225,0.007001,-0.006358,-0.000027
19044194,0.006972,-0.006358,-0.000089
19064207,0.006931,-0.006384,-0.000106
19084310,0.006894,-0.006416,-0.000133
19104191,0.006870,-0.006458,-0.000155
19124211,0.006840,-0.006502,-0.000172
19144228,0.006770,-0.006489,-0.000189
19164203,0.006708,-0.006575,-0.000132
19184202,0.006708,-0.006575,-0.000132
19184215,0.006708,-0.006575,-0.000132
19204199,0.006582,-0.006672,-0.000097
19224204,0.006504,-0.006709,-0.000063
19244216,0.006444,-0.006735,-0.000078
19264253,0.006364,-0.006786,-0.000048
19284203,0.006332,-0.006826,-0.000085
19304217,0.006273,-0.006875,-0.000079
19324213,0.006218,-0.006929,-0.000076
19344232,0.006218,-0.006929,-0.000076
19364201,0.006125,-0.007068,-0.000081
19384199,0.006068,-0.007145,-0.000057
19384214,0.006068,-0.007145,-0.000057
19404217,0.006077,-0.007201,-0.000130
19424206,0.006052,-0.007265,-0.000142
19444209,0.006019,-0.007308,-0.000161
19464209,0.005967,-0.007393,-0.000138
19484209,0.005941,-0.007476,-0.000152
19504495,0.005871,-0.007567,-0.000103
19524213,0.005885,-0.007588,-0.000190
19544201,0.005771,-0.007608,-0.000129
19564206,0.005660,-0.007638,-0.000054
19584239,0.005624,-0.007639,-0.000101
19584264,0.005624,-0.007639,-0.000101
19604206,0.005577,-0.007651,-0.000107
19624211,0.005551,-0.007666,-0.000158
19644204,0.005522,-0.007693,-0.000193
19664204,0.005442,-0.007761,-0.000131
19684191,0.005392,-0.007825,-0.000123
19704200,0.005355,-0.007891,-0.000119
19724196,0.005324,-0.007948,-0.000125
19744196,0.005298,-0.008000,-0.000152
19764219,0.005255,-0.008043,-0.000148
19784198,0.005221,-0.008086,-0.000159
19784214,0.005221,-0.008086,-0.000159
19804205,0.005182,-0.008130,-0.000167
19824201,0.005186,-0.008176,-0.000235
19844258,0.005186,-0.008176,-0.000235
19864344,0.005108,-0.008272,-0.000250
19884224,0.005048,-0.008309,-0.000224
19904217,0.005010,-0.008352,-0.000224
19924202,0.004966,-0.008408,-0.000224
19944239,0.004925,-0.008450,-0.000230
19964235,0.004856,-0.008503,-0.000189
19984217,0.004822,-0.008537,-0.000217
19984233,0.004822,-0.008537,-0.000217
20004470,0.004822,-0.008537,-0.000217
20024230,0.004698,-0.008620,-0.000194
20044278,0.004628,-0.008559,-0.000223
20064222,0.004526,-0.008449,-0.000223
20084213,0.004445,-0.008466,-0.000192
20104213,0.004384,-0.008406,-0.000224
20124227,0.004322,-0.008354,-0.000247
20144281,0.004225,-0.008339,-0.000197
20164205,0.004225,-0.008339,-0.000197
20184217,0.004070,-0.008357,-0.000159
20184232,0.004070,-0.008357,-0.000159
20204208,0.004045,-0.008360,-0.000209
20224207,0.003995,-0.008325,-0.000230
20244202,0.003934,-0.008304,-0.000234
20264204,0.003846,-0.008315,-0.000191
20284208,0.003819,-0.008331,-0.000228
20304200,0.003751,-0.008357,-0.000206
20324217,0.003696,-0.008387,-0.000212
20344294,0.003696,-0.008387,-0.000212
20364208,0.003625,-0.008481,-0.000244
20384282,0.003570,-0.008533,-0.000218
20384299,0.003570,-0.008533,-0.000218
20404201,0.003556,-0.008556,-0.000264
20424191,0.003530,-0.008602,-0.000279
20444217,0.003422,-0.008676,-0.000172
20464203,0.003393,-0.008737,-0.000198
20484195,0.003368,-0.008794,-0.000200
20504223,0.003331,-0.008837,-0.000201
20524219,0.003236,-0.008891,-0.000128
20544225,0.003187,-0.008929,-0.000113
20564223,0.003147,-0.008891,-0.000127
20584241,0.003108,-0.008865,-0.000142
20584256,0.003108,-0.008865,-0.000142
20604225,0.003016,-0.008879,-0.000064
20624222,0.003011,-0.008873,-0.000131
20644259,0.002996,-0.008888,-0.000173
20664211,0.002847,-0.008930,0.000002
20684215,0.002823,-0.008966,-0.000020
20704205,0.002778,-0.009021,-0.000010
20724214,0.002725,-0.009073,0.000024
20744220,0.002742,-0.009095,-0.000077
20764206,0.002691,-0.009129,-0.000059
20785829,0.002639,-0.009200,-0.000052
20785846,0.002639,-0.009200,-0.000052
20804208,0.002639,-0.009200,-0.000052
20824208,0.002543,-0.009269,-0.000032
20844247,0.002543,-0.009269,-0.000032
20864202,0.002411,-0.009366,0.000033
20884222,0.002401,-0.009414,-0.000028
20904207,0.002331,-0.009462,-0.000002
20924214,0.002179,-0.009426,0.000141
20944300,0.002179,-0.009426,0.000141
20964203,0.002109,-0.009531,0.000105
20984218,0.002035,-0.009572,0.000133
20984237,0.002035,-0.009572,0.000133
21004220,0.002059,-0.009622,0.000022
21024202,0.002036,-0.009559,-0.000031
21044235,0.002036,-0.009559,-0.000031
21064213,0.001852,-0.009374,0.000065
21084208,0.001815,-0.009305,0.000035
21104211,0.001740,-0.009265,0.000062
21124206,0.001713,-0.009175,0.000027
21144224,0.001713,-0.009175,0.000027
21164207,0.001615,-0.008990,0.000003
21184201,0.001547,-0.008916,0.000034
21184212,0.001547,-0.008916,0.000034
21204191,0.001517,-0.008849,0.000005
21224193,0.001417,-0.008833,0.000068
21244194,0.001416,-0.008811,-0.000004
21264188,0.001381,-0.008814,-0.000031
21284214,0.001340,-0.008814,-0.000049
21304215,0.001253,-0.008819,0.000001
21324214,0.001203,-0.008841,-0.000004
21344325,0.001203,-0.008841,-0.000004
21364206,0.001180,-0.008872,-0.000039
21384230,0.000999,-0.008943,0.000075
21384252,0.000999,-0.008943,0.000075
21404222,0.000918,-0.009003,0.000091
21424229,0.000895,-0.009054,0.000046
21444299,0.000895,-0.009054,0.000046
21464223,0.000728,-0.009165,0.000118
21484274,0.000728,-0.009165,0.000118
21504213,0.000641,-0.009290,0.000093
21524215,0.000608,-0.009342,0.000052
21544233,0.000591,-0.009321,0.000013
21564203,0.000482,-0.009316,0.000077
21584207,0.000386,-0.009320,0.000135
21584230,0.000386,-0.009320,0.000135
21604218,0.000386,-0.009330,0.000049
21624221,0.000312,-0.009353,0.000076
21644215,0.000242,-0.009352,0.000090
21664208,0.000174,-0.009294,0.000123
21684252,0.000174,-0.009294,0.000123
21704204,0.000065,-0.009255,0.000109
21724219,0.000004,-0.009252,0.000132
21744204,-0.000054,-0.009265,0.000129
21764200,-0.000122,-0.009285,0.000125
21784193,-0.000191,-0.009311,0.000145
21784202,-0.000191,-0.009311,0.000145
21804193,-0.000249,-0.009327,0.000154
21824191,-0.000317,-0.009355,0.000175
21844203,-0.000386,-0.009386,0.000166
21864200,-0.000468,-0.009417,0.000196
21884207,-0.000468,-0.009417,0.000196
21904197,-0.000606,-0.009452,0.000201
21924257,-0.000689,-0.009483,0.000226
21944640,-0.000768,-0.009499,0.000244
21964810,-0.000764,-0.009520,0.000153
21984231,-0.000803,-0.009542,0.000107
21984256,-0.000803,-0.009542,0.000107
22004208,-0.000890,-0.009547,0.000154
22024217,-0.000945,-0.009572,0.000141
22044318,-0.000945,-0.009572,0.000141
22064209,-0.001005,-0.009453,0.000112
22084241,-0.001070,-0.009410,0.000140
22104258,-0.001101,-0.009324,0.000138
22124268,-0.001154,-0.009252,0.000163
22144378,-0.001154,-0.009252,0.000163
22164203,-0.001230,-0.009175,0.000144
22184199,-0.001301,-0.009146,0.000166
22184218,-0.001301,-0.009146,0.000166
22204157,-0.001301,-0.009146,0.000166
22224204,-0.001407,-0.009120,0.000169
22244249,-0.001443,-0.009130,0.000130
22264301,-0.001524,-0.009137,0.000160
22284196,-0.001594,-0.009164,0.000161
22304324,-0.001637,-0.009195,0.000124
22324203,-0.001699,-0.009226,0.000114
22344252,-0.001699,-0.009226,0.000114
22364213,-0.001902,-0.009279,0.000183
22384203,-0.001978,-0.009326,0.000168
22384215,-0.001978,-0.009326,0.000168
22404193,-0.002081,-0.009345,0.000205
22424203,-0.002122,-0.009386,0.000151
22444214,-0.002161,-0.009432,0.000088
22464254,-0.002201,-0.009482,0.000026
22484204,-0.002312,-0.009497,0.000084
22504219,-0.002312,-0.009497,0.000084
22524205,-0.002472,-0.009445,0.000168
22544279,-0.002533,-0.009405,0.000201
22564237,-0.002590,-0.009369,0.000206
22584239,-0.002616,-0.009355,0.000161
22584259,-0.002616,-0.009355,0.000161
22604247,-0.002616,-0.009355,0.000161
22624225,-0.002722,-0.009306,0.000161
22644295,-0.002794,-0.009298,0.000171
22664213,-0.002810,-0.009248,0.000140
22684216,-0.002830,-0.009197,0.000119
22704213,-0.002868,-0.009164,0.000117
22724290,-0.002944,-0.009122,0.000166
22744252,-0.002944,-0.009122,0.000166
22764201,-0.003025,-0.009078,0.000145
22784199,-0.003100,-0.009051,0.000184
22784212,-0.003100,-0.009051,0.000184
22804205,-0.003182,-0.009038,0.000226
22824235,-0.003194,-0.009063,0.000148
22844285,-0.003194,-0.009063,0.000148
22864210,-0.003250,-0.009104,0.000056
22884199,-0.003349,-0.009081,0.000114
22904202,-0.003349,-0.009081,0.000114
22924200,-0.003457,-0.009085,0.000085
22944227,-0.003528,-0.009077,0.000093
22964209,-0.003528,-0.009077,0.000093
22984206,-0.003670,-0.009069,0.000103
22984223,-0.003670,-0.009069,0.000103
23004205,-0.003738,-0.009049,0.000107
23024210,-0.003740,-0.008967,0.000086
23044233,-0.003740,-0.008967,0.000086
23064223,-0.003812,-0.008847,0.000085
23084206,-0.003874,-0.008781,0.000118
23104190,-0.003882,-0.008663,0.000141
23124208,-0.003900,-0.008579,0.000145
23144219,-0.003939,-0.008508,0.000148
23164192,-0.003984,-0.008446,0.000166
23184213,-0.004032,-0.008395,0.000180
23184229,-0.004032,-0.008395,0.000180
23204211,-0.004086,-0.008354,0.000192
23224211,-0.004117,-0.008353,0.000131
23244219,-0.004151,-0.008358,0.000069
23264238,-0.004227,-0.008337,0.000088
23284220,-0.004287,-0.008320,0.000077
23304205,-0.004378,-0.008316,0.000088
23324220,-0.004476,-0.008290,0.000129
23344242,-0.004476,-0.008290,0.000129
23364225,-0.004608,-0.008296,0.000102
23384205,-0.004667,-0.008299,0.000077
23384218,-0.004667,-0.008299,0.000077
23404206,-0.004728,-0.008335,0.000043
23424169,-0.004789,-0.008358,0.000003
23444225,-0.004845,-0.008359,-0.000026
23464227,-0.004845,-0.008359,-0.000026
23484211,-0.004969,-0.008363,-0.000044
23504216,-0.005038,-0.008361,-0.000045
23524200,-0.005090,-0.008357,-0.000057
23544253,-0.005085,-0.008294,-0.000079
23564224,-0.005105,-0.008247,-0.000070
23584216,-0.005177,-0.008181,0.000004
23584228,-0.005177,-0.008181,0.000004
23604216,-0.005209,-0.008138,-0.000000
23624204,-0.005255,-0.008099,0.000015
23644211,-0.005351,-0.008029,0.000102
23664210,-0.005393,-0.008023,0.000074
23684236,-0.005466,-0.007993,0.000099
23704199,-0.005497,-0.008008,0.000031
23724198,-0.005543,-0.008005,-0.000003
23744200,-0.005543,-0.008005,-0.000003
23764211,-0.005676,-0.007996,-0.000029
23784386,-0.005750,-0.007956,0.000003
23784403,-0.005750,-0.007956,0.000003
23804199,-0.005849,-0.007900,0.000053
23824203,-0.005882,-0.007931,-0.000036
23844196,-0.005969,-0.007884,0.000014
23864218,-0.006069,-0.007851,0.000028
23884206,-0.006126,-0.007849,-0.000022
23904226,-0.006183,-0.007839,-0.000057
23924194,-0.006260,-0.007811,-0.000061
23944206,-0.006332,-0.007787,-0.000061
23964231,-0.006399,-0.007762,-0.000063
23984213,-0.006439,-0.007753,-0.000116
23984229,-0.006439,-0.007753,-0.000116
24004216,-0.006515,-0.007694,-0.000079
24024222,-0.006584,-0.007641,-0.000054
24044272,-0.006584,-0.007641,-0.000054
24064229,-0.006577,-0.007455,-0.000068
24084213,-0.006499,-0.007341,-0.000105
24104217,-0.006470,-0.007212,-0.000092
24124276,-0.006458,-0.007138,-0.000130
24144210,-0.006458,-0.007138,-0.000130
24164234,-0.006457,-0.007059,-0.000126
24184221,-0.006491,-0.006941,-0.000174
24184244,-0.006491,-0.006941,-0.000174
24204200,-0.006528,-0.006884,-0.000173
24224230,-0.006569,-0.006835,-0.000175
24244213,-0.006575,-0.006728,-0.000141
24264286,-0.006608,-0.006697,-0.000171
24284199,-0.006602,-0.006608,-0.000159
24304193,-0.006622,-0.006522,-0.000142
24324203,-0.006627,-0.006492,-0.000192
24344212,-0.006648,-0.006432,-0.000207
24364212,-0.006690,-0.006379,-0.000205
24384213,-0.006744,-0.006321,-0.000183
24384231,-0.006744,-0.006321,-0.000183
24404199,-0.006765,-0.006304,-0.000245
24424198,-0.006888,-0.006291,-0.000236
24444222,-0.006888,-0.006291,-0.000236
24464206,-0.006975,-0.006233,-0.000294
24484197,-0.007036,-0.006176,-0.000279
24504205,-0.007076,-0.006153,-0.000311
24524211,-0.007066,-0.006068,-0.000307
24544215,-0.007084,-0.005957,-0.000258
24564204,-0.007096,-0.005919,-0.000290
24584479,-0.007113,-0.005874,-0.000315
24584508,-0.007113,-0.005874,-0.000315
24604220,-0.007104,-0.005856,-0.000396
24624199,-0.007123,-0.005716,-0.000294
24644249,-0.007147,-0.005606,-0.000227
24664215,-0.007117,-0.005564,-0.000271
24684201,-0.007076,-0.005469,-0.000249
24704201,-0.007000,-0.005341,-0.000210
24724209,-0.007025,-0.005283,-0.000188
24744235,-0.007058,-0.005233,-0.000177
24764208,-0.007040,-0.005148,-0.000137
24784214,-0.007094,-0.005117,-0.000130
24784232,-0.007094,-0.005117,-0.000130
24804198,-0.007153,-0.005105,-0.000124
24824200,-0.007232,-0.005103,-0.000102
24844412,-0.007323,-0.005097,-0.000039
24864217,-0.007402,-0.005096,-0.000007
24884281,-0.007402,-0.005096,-0.000007
24904200,-0.007591,-0.005007,0.000160
24924208,-0.007661,-0.004989,0.000150
24944215,-0.007661,-0.004989,0.000150
24964590,-0.007819,-0.004952,0.000181
24984209,-0.007895,-0.004962,0.000132
24984222,-0.007895,-0.004962,0.000132
25004206,-0.007996,-0.004956,0.000115
25024233,-0.007992,-0.004904,0.000124
25044206,-0.008000,-0.004871,0.000102
25064345,-0.008000,-0.004871,0.000102
25084214,-0.008031,-0.004837,0.000087
25104223,-0.007939,-0.004662,0.000067
25124214,-0.007874,-0.004624,-0.000011
25144231,-0.007805,-0.004643,-0.000132
25164303,-0.007750,-0.004696,-0.000305
25184204,-0.007763,-0.004687,-0.000366
25184217,-0.007763,-0.004687,-0.000366
25204203,-0.007779,-0.004669,-0.000397
25224239,-0.007728,-0.004649,-0.000449
25244206,-0.007797,-0.004605,-0.000410
25264208,-0.007874,-0.004550,-0.000355
25284324,-0.007950,-0.004495,-0.000304
25304200,-0.008029,-0.004466,-0.000283
25324194,-0.008092,-0.004450,-0.000294
25344223,-0.008092,-0.004450,-0.000294
25364199,-0.008237,-0.004446,-0.000358
25384202,-0.008327,-0.004389,-0.000302
25384217,-0.008327,-0.004389,-0.000302
25404196,-0.008424,-0.004324,-0.000245
25424202,-0.008500,-0.004264,-0.000206
25444196,-0.008579,-0.004232,-0.000195
25464205,-0.008645,-0.004196,-0.000188
25484208,-0.008628,-0.004156,-0.000212
25504257,-0.008718,-0.004074,-0.000144
25524225,-0.008728,-0.003985,-0.000105
25544235,-0.008731,-0.003888,-0.000060
25564206,-0.008729,-0.003835,-0.000087
25584210,-0.008759,-0.003703,0.000026
25584228,-0.008759,-0.003703,0.000026
25604209,-0.008715,-0.003595,0.000075
25624222,-0.008715,-0.003595,0.000075
25644375,-0.008664,-0.003553,-0.000052
25664209,-0.008671,-0.003460,-0.000028
25684436,-0.008681,-0.003399,-0.000027
25704202,-0.008714,-0.003350,-0.000051
25724232,-0.008764,-0.003219,0.000044
25744247,-0.008792,-0.003175,0.000010
25764206,-0.008829,-0.003190,-0.000098
25784205,-0.008869,-0.003074,-0.000048
25784218,-0.008869,-0.003074,-0.000048
25804204,-0.008922,-0.003051,-0.000110
25824204,-0.008955,-0.002965,-0.000084
25844201,-0.009004,-0.002949,-0.000135
25864551,-0.009054,-0.002900,-0.000158
25884214,-0.009124,-0.002787,-0.000073
25904201,-0.009185,-0.002766,-0.000154
25924219,-0.009245,-0.002689,-0.000129
25944219,-0.009306,-0.002609,-0.000111
25964210,-0.009341,-0.002560,-0.000099
25984154,-0.009341,-0.002560,-0.000099
25984165,-0.009341,-0.002560,-0.000099
26004210,-0.009374,-0.002455,-0.000030
26024215,-0.009361,-0.002171,0.000291
26044195,-0.009310,-0.002081,0.000346
26064199,-0.009310,-0.002081,0.000346
26084211,-0.009268,-0.002041,0.000171
26104188,-0.009209,-0.002024,0.000083
26124190,-0.009181,-0.002030,-0.000035
26144222,-0.009181,-0.002030,-0.000035
26164198,-0.009166,-0.001887,0.000011
26184198,-0.009177,-0.001842,0.000015
26184210,-0.009177,-0.001842,0.000015
26204201,-0.009191,-0.001793,0.000019
26224197,-0.009202,-0.001690,0.000105
26244214,-0.009239,-0.001681,0.000047
26264214,-0.009262,-0.001619,0.000074
26284237,-0.009288,-0.001609,0.000013
26304209,-0.009325,-0.001503,0.000092
26324206,-0.009365,-0.001432,0.000132
26344239,-0.009406,-0.001400,0.000104
26364223,-0.009438,-0.001339,0.000116
26384214,-0.009480,-0.001218,0.000206
26384236,-0.009480,-0.001218,0.000206
26404206,-0.009527,-0.001181,0.000156
26424217,-0.009590,-0.001156,0.000056
26444227,-0.009590,-0.001156,0.000056
26464280,-0.009722,-0.001099,-0.000105
26484220,-0.009744,-0.000958,-0.000010
26504220,-0.009767,-0.000886,-0.000034
26524209,-0.009723,-0.000806,-0.000016
26544214,-0.009702,-0.000744,-0.000023
26564216,-0.009679,-0.000709,-0.000062
26584214,-0.009674,-0.000664,-0.000096
26584230,-0.009674,-0.000664,-0.000096
26604210,-0.009596,-0.000624,-0.000102
26624194,-0.009548,-0.000656,-0.000229
26644207,-0.009497,-0.000573,-0.000189
26664414,-0.009473,-0.000507,-0.000176
26684200,-0.009479,-0.000496,-0.000240
26704199,-0.009464,-0.000416,-0.000201
26724201,-0.009550,-0.000354,-0.000206
26744239,-0.009547,-0.000274,-0.000169
26764205,-0.009537,-0.000227,-0.000180
26784198,-0.009528,-0.000118,-0.000099
26784211,-0.009528,-0.000118,-0.000099
26804196,-0.009545,-0.000090,-0.000144
26824190,-0.009542,0.000006,-0.000098
26844202,-0.009541,0.000109,-0.000026
26864363,-0.009542,0.000155,-0.000031
26884192,-0.009561,0.000208,-0.000053
26904235,-0.009561,0.000208,-0.000053
26924193,-0.009606,0.000326,-0.000049
26944211,-0.009629,0.000376,-0.000060
26964198,-0.009647,0.000430,-0.000067
26984209,-0.009659,0.000521,-0.000017
26984223,-0.009659,0.000521,-0.000017
27004214,-0.009678,0.000565,-0.000055
27024212,-0.009692,0.000624,-0.000063
27044227,-0.009618,0.000685,-0.000037
27064215,-0.009567,0.000760,-0.000009
27084217,-0.009567,0.000760,-0.000009
27104217,-0.009424,0.000876,0.000013
27124227,-0.009336,0.000936,0.000053
27144275,-0.009275,0.000971,0.000037
27164213,-0.009133,0.001040,0.000121
27184213,-0.009042,0.001073,0.000127
27184228,-0.009042,0.001073,0.000127
27204204,-0.008989,0.001115,0.000129
27224195,-0.008946,0.001177,0.000164
27244199,-0.008945,0.001177,0.000097
27264214,-0.008925,0.001237,0.000119
27284211,-0.008929,0.001281,0.000112
27304201,-0.008932,0.001335,0.000113
27324207,-0.008959,0.001363,0.000059
27344204,-0.008965,0.001438,0.000088
27364210,-0.008966,0.001559,0.000191
27384200,-0.008987,0.001642,0.000224
27384214,-0.008987,0.001642,0.000224
27404212,-0.009024,0.001693,0.000205
27424203,-0.009047,0.001769,0.000220
27444206,-0.009066,0.001838,0.000242
27464207,-0.009096,0.001889,0.000217
27484216,-0.009122,0.001982,0.000254
27504188,-0.009129,0.002064,0.000291
27524221,-0.009131,0.002140,0.000319
27544240,-0.009141,0.002170,0.000281
27564209,-0.009141,0.002170,0.000281
27584574,-0.009104,0.002257,0.000258
27584610,-0.009104,0.002257,0.000258
27604212,-0.009072,0.002295,0.000249
27624213,-0.009061,0.002300,0.000182
27644224,-0.009057,0.002355,0.000172
27664232,-0.009061,0.002415,0.000170
27684225,-0.008989,0.002436,0.000154
27704419,-0.008941,0.002467,0.000143
27724217,-0.008941,0.002467,0.000143
27744291,-0.008923,0.002481,0.000084
27764218,-0.008914,0.002629,0.000124
27784219,-0.008964,0.002721,0.000122
27784240,-0.008964,0.002721,0.000122
27804203,-0.009012,0.002789,0.000085
27824220,-0.009044,0.002885,0.000106
27844413,-0.008977,0.002975,0.000177
27864220,-0.009026,0.003025,0.000135
27884212,-0.009008,0.003067,0.000104
27904197,-0.009031,0.003131,0.000087
27924207,-0.008992,0.003172,0.000082
27944235,-0.009044,0.003211,0.000007
27964204,-0.009066,0.003304,0.000014
27984197,-0.009086,0.003400,0.000038
27984208,-0.009086,0.003400,0.000038
28004282,-0.009092,0.003486,0.000046
28024212,-0.008993,0.003562,0.000112
28044205,-0.008927,0.003624,0.000147
28064204,-0.008927,0.003624,0.000147
28084204,-0.008859,0.003709,0.000112
28104217,-0.008766,0.003707,0.000090
28124204,-0.008701,0.003717,0.000068
28144320,-0.008652,0.003749,0.000054
28164201,-0.008611,0.003797,0.000056
28184193,-0.008587,0.003837,0.000035
28184202,-0.008587,0.003837,0.000035
28204209,-0.008553,0.003882,0.000020
28224197,-0.008505,0.003958,0.000064
28244193,-0.008414,0.003971,0.000083
28264205,-0.008337,0.003996,0.000095
28284231,-0.008259,0.004011,0.000108
28304189,-0.008292,0.004060,0.000064
28324206,-0.008308,0.004111,0.000035
28344218,-0.008244,0.004144,0.000059
28364199,-0.008198,0.004185,0.000072
28384434,-0.008168,0.004225,0.000064
28384457,-0.008168,0.004225,0.000064
28404203,-0.008210,0.004293,0.000038
28424246,-0.008143,0.004305,0.000044
28444209,-0.008119,0.004368,0.000080
28464236,-0.008118,0.004403,0.000062
28484201,-0.008092,0.004451,0.000071
28504211,-0.008073,0.004524,0.000116
28524234,-0.008073,0.004524,0.000116
28544211,-0.008097,0.004624,0.000088
28564207,-0.008030,0.004642,0.000106
28584205,-0.007980,0.004673,0.000115
28584221,-0.007980,0.004673,0.000115
28604207,-0.007919,0.004706,0.000151
28624250,-0.007914,0.004722,0.000106
28644215,-0.007886,0.004759,0.000103
28664214,-0.007843,0.004850,0.000165
28684218,-0.007816,0.004925,0.000203
28704205,-0.007772,0.004915,0.000161
28724393,-0.007775,0.004978,0.000140
28744223,-0.007721,0.004998,0.000131
28764202,-0.007740,0.005101,0.000123
28784197,-0.007701,0.005116,0.000095
28784208,-0.007701,0.005116,0.000095
28804213,-0.007678,0.005251,0.000165
28824198,-0.007677,0.005372,0.000196
28844166,-0.007677,0.005372,0.000196
28864220,-0.007652,0.005406,0.000075
28884209,-0.007614,0.005421,0.000057
28904202,-0.007540,0.005512,0.000120
28924201,-0.007551,0.005532,0.000065
28944221,-0.007538,0.005569,0.000024
28964208,-0.007497,0.005660,0.000072
28984210,-0.007533,0.005770,0.000073
28984226,-0.007533,0.005770,0.000073
29004219,-0.007502,0.005934,0.000176
29024206,-0.007474,0.005974,0.000162
29044207,-0.007443,0.006026,0.000153
29064214,-0.007441,0.006058,0.000105
29084212,-0.007391,0.006134,0.000148
29104198,-0.007332,0.006128,0.000129
29124201,-0.007257,0.006157,0.000151
29144216,-0.007244,0.006136,0.000057
29164215,-0.007201,0.006154,0.000043
29184249,-0.007201,0.006154,0.000043
29184269,-0.007201,0.006154,0.000043
29204221,-0.007156,0.006199,0.000055
29224216,-0.007083,0.006308,0.000048
29244372,-0.007050,0.006373,0.000045
29264218,-0.007050,0.006373,0.000045
29284214,-0.006975,0.006516,0.000083
29304197,-0.006981,0.006577,0.000040
29324204,-0.006978,0.006640,0.000021
29344212,-0.006938,0.006727,0.000049
29364205,-0.006917,0.006800,0.000049
29384187,-0.006879,0.006892,0.000088
29384198,-0.006879,0.006892,0.000088
29404195,-0.006842,0.006948,0.000079
29424199,-0.006784,0.006951,0.000077
