TimeUS,PosX,PosY,PosZ,VelX,VelY,VelZ,AccX,AccY,AccZ
344147,-1.451327,-0.018995,2.051569,0.001431,0.034171,0.000304,-0.007827,-0.089130,0.002048
544189,-1.450319,0.103855,2.052867,0.007264,0.517628,0.003162,0.012924,0.909554,0.003712
744170,-1.440982,0.207896,2.052663,0.041150,0.620495,-0.001321,0.064258,0.775592,-0.005858
944213,-1.425087,0.308231,2.052394,0.075007,0.637735,-0.001027,0.092418,0.585223,-0.003189
1144184,-1.403856,0.394829,2.050171,0.107318,0.588848,-0.008119,0.109403,0.381973,-0.011306
1344221,-1.380176,0.477078,2.050351,0.129608,0.537811,-0.004552,0.110122,0.236430,-0.004776
1544247,-1.350174,0.563045,2.050054,0.155951,0.503245,-0.003792,0.114529,0.143930,-0.003121
1744198,-1.316486,0.633435,2.045298,0.179536,0.438313,-0.015337,0.115324,0.041898,-0.014857
1944181,-1.278007,0.707881,2.043595,0.204536,0.408755,-0.013852,0.118231,0.001936,-0.010170
2144187,-1.236712,0.776638,2.040828,0.219827,0.367034,-0.015284,0.107915,-0.045208,-0.009538
2344197,-1.189907,0.847407,2.039568,0.244227,0.355032,-0.011355,0.111564,-0.047141,-0.003065
2544249,-1.132692,0.921802,2.037240,0.283556,0.356698,-0.012115,0.129777,-0.035936,-0.003352
2744219,-1.077330,0.986552,2.038445,0.297769,0.332542,-0.002087,0.116600,-0.054619,0.008467
2944235,-1.018242,1.046967,2.037218,0.312412,0.306006,-0.003725,0.107247,-0.071560,0.004428
3144190,-0.952348,1.106228,2.035868,0.337076,0.289954,-0.004580,0.110481,-0.073639,0.002714
3344173,-0.878794,1.166457,2.038461,0.370562,0.285546,0.005644,0.123018,-0.062573,0.013167
3544392,-0.802034,1.220043,2.039755,0.393565,0.264023,0.007250,0.121184,-0.072530,0.011539
3744185,-0.722376,1.267446,2.041083,0.414280,0.239023,0.008923,0.117725,-0.083563,0.011059
3944188,-0.637921,1.311449,2.040344,0.435514,0.216307,0.003034,0.115117,-0.090083,0.001998
4144189,-0.559920,1.348578,2.041049,0.421937,0.183556,0.002975,0.073755,-0.106697,0.001055
4344191,-0.476329,1.377425,2.034000,0.432725,0.147291,-0.017065,0.071102,-0.122055,-0.019976
4544201,-0.388936,1.407319,2.040530,0.443661,0.131468,0.009193,0.066406,-0.112463,0.013481
4744221,-0.312861,1.424163,2.039096,0.411658,0.086235,0.000746,0.016755,-0.136940,0.000568
4944217,-0.245889,1.437472,2.040488,0.375603,0.057203,0.004844,-0.022663,-0.137529,0.005268
5144402,-0.184327,1.446481,2.040452,0.323594,0.028343,0.002513,-0.072935,-0.137181,0.001498
5344192,-0.094981,1.454362,2.039382,0.386004,0.015565,-0.001114,0.012584,-0.120922,-0.002372
5544169,0.003577,1.456604,2.035224,0.447454,-0.003825,-0.011299,0.076026,-0.115356,-0.011905
5744187,0.096999,1.454261,2.032690,0.469111,-0.026507,-0.016336,0.083527,-0.115979,-0.016595
5944187,0.196926,1.446868,2.036073,0.497223,-0.049625,-0.000117,0.095199,-0.116312,0.004387
6144198,0.285646,1.436268,2.037549,0.478533,-0.068231,0.004527,0.052987,-0.111280,0.008319
6344199,0.374592,1.417474,2.036077,0.466582,-0.099239,-0.001606,0.028202,-0.121130,-0.000577
6544196,0.467083,1.392714,2.035213,0.466381,-0.130494,-0.003501,0.020801,-0.128761,-0.002690
6744179,0.556924,1.364256,2.035861,0.460139,-0.155821,-0.000044,0.009865,-0.128406,0.001695
6944193,0.646867,1.327348,2.033472,0.455161,-0.190416,-0.006559,0.001970,-0.138044,-0.005780
7144241,0.728140,1.289152,2.033468,0.426977,-0.210691,-0.003977,-0.029432,-0.130239,-0.001915
7344220,0.806057,1.245077,2.032274,0.400885,-0.234947,-0.006148,-0.051721,-0.128407,-0.004373
7544240,0.884290,1.197773,2.033986,0.387414,-0.253841,0.001466,-0.055514,-0.120745,0.004779
7744214,0.955782,1.146239,2.032598,0.362586,-0.273172,-0.002299,-0.070371,-0.115404,-0.000131
7944215,1.026842,1.086172,2.030694,0.347147,-0.305105,-0.006990,-0.071948,-0.125407,-0.005636
8144184,1.089169,1.025558,2.029985,0.315023,-0.321655,-0.007290,-0.092283,-0.115988,-0.005673
8344190,1.148237,0.962566,2.030502,0.290812,-0.334838,-0.002753,-0.098422,-0.105336,0.000328
8544197,1.204404,0.893058,2.029913,0.265236,-0.352057,-0.003855,-0.104569,-0.100720,-0.001691
8744208,1.252713,0.828065,2.031322,0.238664,-0.352647,0.002567,-0.109465,-0.080485,0.006001
8944238,1.302578,0.751710,2.029753,0.229363,-0.380412,-0.001975,-0.095575,-0.092987,0.000060
9144195,1.346466,0.674571,2.029871,0.209334,-0.395497,-0.000334,-0.096862,-0.088535,0.001943
9344292,1.383824,0.600340,2.030636,0.181987,-0.392785,0.002437,-0.105942,-0.065302,0.004639
9544202,1.417307,0.519995,2.029748,0.158496,-0.408050,-0.001617,-0.108494,-0.068216,-0.001322
9744201,1.444662,0.447376,2.031092,0.130512,-0.392626,0.002861,-0.115417,-0.036834,0.003780
9944219,1.471494,0.360562,2.033900,0.115388,-0.420190,0.009480,-0.106735,-0.058764,0.010003
10144224,1.491305,0.275628,2.032876,0.090303,-0.430589,0.002168,-0.111172,-0.056918,-0.000439
10344225,1.507700,0.185946,2.031788,0.069240,-0.448983,-0.002772,-0.110172,-0.064648,-0.006097
10544207,1.518747,0.091326,2.031157,0.044235,-0.466716,-0.003961,-0.113501,-0.068412,-0.006128
10744211,1.522441,0.008862,2.031983,0.012533,-0.446308,-0.001537,-0.123846,-0.031768,-0.003022
10944204,1.520847,-0.079010,2.032800,-0.016844,-0.449032,0.001273,-0.128840,-0.029260,0.000750
11144228,1.512279,-0.167384,2.031527,-0.050534,-0.447997,-0.003688,-0.137808,-0.020976,-0.005333
11344232,1.498119,-0.255641,2.029738,-0.081857,-0.446707,-0.007525,-0.141929,-0.014946,-0.008405
11544212,1.479074,-0.345926,2.029449,-0.109910,-0.450840,-0.005524,-0.141668,-0.015695,-0.004599
11744216,1.457525,-0.428667,2.030588,-0.128486,-0.432214,0.000902,-0.130696,0.007877,0.003902
11944258,1.427254,-0.516287,2.029064,-0.159562,-0.431422,-0.003455,-0.135773,0.007579,-0.001750
12144214,1.393743,-0.596512,2.027969,-0.182992,-0.411246,-0.005010,-0.131365,0.029128,-0.003172
12344230,1.353967,-0.679937,2.027493,-0.210400,-0.410545,-0.003240,-0.132325,0.023460,-0.000068
12544231,1.307859,-0.761435,2.026059,-0.239872,-0.402811,-0.005659,-0.135295,0.027434,-0.002834
12744287,1.262933,-0.832096,2.026856,-0.251194,-0.371041,-0.001041,-0.118580,0.055819,0.002503
12944217,1.213430,-0.898901,2.027550,-0.266765,-0.343137,0.001873,-0.110181,0.073288,0.005127
13144363,1.159175,-0.963933,2.028419,-0.282697,-0.318833,0.003041,-0.102495,0.084999,0.004587
13344191,1.097952,-1.029624,2.027374,-0.312060,-0.313130,-0.001815,-0.113059,0.072058,-0.002253
13544214,1.029801,-1.096505,2.026133,-0.343546,-0.313658,-0.004637,-0.122000,0.056679,-0.004833
13744230,0.964108,-1.154128,2.027784,-0.353254,-0.292246,0.003005,-0.106561,0.066790,0.005259
13944737,0.890308,-1.209206,2.029432,-0.373235,-0.269171,0.006305,-0.104214,0.077634,0.007424
14144227,0.817717,-1.256795,2.030030,-0.381377,-0.239882,0.005444,-0.089493,0.093195,0.004837
14344381,0.737317,-1.304271,2.030398,-0.406760,-0.225312,0.003698,-0.098325,0.088528,0.001621
14544244,0.653666,-1.346051,2.029600,-0.425754,-0.201716,-0.000804,-0.097071,0.095553,-0.003878
14744200,0.577563,-1.380156,2.030029,-0.413286,-0.170476,0.000922,-0.061885,0.108659,-0.000745
14944206,0.488686,-1.411833,2.030495,-0.439457,-0.148298,0.002732,-0.076655,0.108972,0.002149
15144215,0.404102,-1.437063,2.033844,-0.438123,-0.119185,0.011009,-0.057320,0.117104,0.010692
15344353,0.314132,-1.457435,2.033849,-0.454412,-0.093271,0.006149,-0.063511,0.119355,0.002970
15544224,0.218305,-1.473321,2.031135,-0.476121,-0.068292,-0.004370,-0.072321,0.120531,-0.008882
15744207,0.127183,-1.485649,2.032874,-0.475596,-0.047187,0.001425,-0.056488,0.117324,-0.000883
15944207,0.035558,-1.491152,2.033617,-0.472965,-0.019077,0.002672,-0.041126,0.122373,0.000721
16144212,-0.052583,-1.488702,2.033571,-0.460099,0.016740,0.000469,-0.017946,0.135047,-0.002282
16344190,-0.142379,-1.481059,2.033202,-0.451611,0.048739,-0.002125,-0.004182,0.140348,-0.005285
16544296,-0.234214,-1.469974,2.034575,-0.456203,0.072869,0.001973,-0.008626,0.136137,0.000175
16744221,-0.323179,-1.451721,2.033112,-0.451574,0.102050,-0.002024,-0.002097,0.137752,-0.003362
16944224,-0.415476,-1.427409,2.032176,-0.457882,0.131333,-0.001738,-0.008786,0.138569,-0.000714
17144258,-0.498607,-1.401598,2.032468,-0.431862,0.149115,0.000120,0.022529,0.127313,0.001561
17344219,-0.584783,-1.367650,2.032465,-0.428883,0.178934,0.000914,0.020349,0.131966,0.002512
17544212,-0.666114,-1.327960,2.032279,-0.412836,0.208710,0.000482,0.033712,0.135522,0.001653
17744209,-0.743251,-1.284125,2.031976,-0.390874,0.233013,-0.000124,0.050315,0.132047,0.000839
17944199,-0.821662,-1.234415,2.033159,-0.384690,0.260882,0.003538,0.045862,0.133717,0.004736
18144199,-0.893353,-1.181264,2.034580,-0.362341,0.282361,0.006371,0.060752,0.127717,0.006881
18344210,-0.964758,-1.120421,2.033842,-0.351016,0.313001,0.001664,0.059590,0.133244,0.000239
18544240,-1.030430,-1.059708,2.033990,-0.328964,0.326063,0.001299,0.070521,0.118284,-0.000119
18744206,-1.087628,-0.999252,2.033515,-0.295386,0.329640,0.000007,0.091041,0.096551,-0.000920
18944209,-1.147663,-0.927589,2.034260,-0.285869,0.360546,0.002204,0.081036,0.109699,0.001833
19144220,-1.202016,-0.854550,2.036881,-0.265127,0.376624,0.009439,0.086202,0.102215,0.009843
19344291,-1.247581,-0.776858,2.035823,-0.231864,0.397916,0.003220,0.103470,0.103125,0.001396
19544217,-1.291448,-0.693499,2.037727,-0.209368,0.422934,0.006453,0.105838,0.107551,0.004223
19744184,-1.329232,-0.609558,2.039098,-0.183275,0.437450,0.007605,0.110743,0.100584,0.004773
19944219,-1.364635,-0.520232,2.041885,-0.162365,0.454486,0.011512,0.109293,0.097034,0.007751
20144283,-1.389878,-0.437304,2.043191,-0.125673,0.443898,0.009837,0.125740,0.063250,0.004249
20344311,-1.410739,-0.352294,2.045514,-0.095965,0.442887,0.011778,0.130419,0.048837,0.005646
20544221,-1.428102,-0.258600,2.045670,-0.071204,0.462422,0.005650,0.128998,0.059401,-0.002720
20744189,-1.440564,-0.168643,2.046164,-0.048115,0.465184,0.003852,0.125729,0.050399,-0.003772
20944284,-1.446444,-0.073221,2.044463,-0.019260,0.478695,-0.003645,0.129908,0.053811,-0.011059
21144439,-1.447647,0.012154,2.045030,0.007108,0.453866,-0.001606,0.130449,0.013133,-0.006478
21344527,-1.444579,0.096113,2.046225,0.030348,0.437652,0.001946,0.127162,-0.006071,-0.001064
21544225,-1.434334,0.189924,2.045189,0.059198,0.454316,-0.000670,0.130058,0.013137,-0.002619
21744193,-1.417834,0.277307,2.042939,0.090516,0.446054,-0.006449,0.135472,0.001127,-0.007933
21944442,-1.394206,0.370623,2.040030,0.124831,0.451952,-0.012221,0.142764,0.007305,-0.012527
22144377,-1.369758,0.454311,2.040497,0.144164,0.432422,-0.006922,0.132934,-0.016733,-0.004768
22344237,-1.337437,0.539876,2.038811,0.173696,0.428674,-0.008518,0.136558,-0.016335,-0.005531
22544188,-1.297725,0.627993,2.037161,0.207147,0.431292,-0.010053,0.143150,-0.010923,-0.006663
22744255,-1.256576,0.707882,2.036528,0.226809,0.411516,-0.007493,0.133353,-0.030166,-0.002688
22944169,-1.209383,0.789279,2.036118,0.251288,0.404970,-0.004648,0.131103,-0.030516,0.001063
23144172,-1.159255,0.860897,2.034244,0.268782,0.372093,-0.007402,0.120972,-0.060989,-0.002333
23344290,-1.102754,0.933147,2.034074,0.294243,0.357778,-0.003816,0.122713,-0.062610,0.002208
23544230,-1.041219,1.006206,2.035881,0.318632,0.352502,0.003930,0.121950,-0.055214,0.010226
23744231,-0.975506,1.071885,2.033678,0.342182,0.331590,-0.002362,0.121364,-0.065458,0.001649
23944150,-0.902562,1.137395,2.035062,0.372291,0.319174,0.003061,0.127878,-0.064926,0.007154
24144303,-0.832929,1.191253,2.036361,0.374196,0.279476,0.006290,0.100752,-0.094805,0.009281
24344184,-0.761315,1.239808,2.038557,0.379323,0.245207,0.010372,0.084256,-0.111413,0.011779
24544166,-0.683453,1.285416,2.041068,0.396307,0.218641,0.012876,0.083842,-0.116726,0.011610
24744187,-0.609712,1.322133,2.042030,0.390479,0.180221,0.008844,0.058908,-0.133317,0.003968
24944442,-0.524748,1.359194,2.037210,0.419270,0.164209,-0.009659,0.078102,-0.121499,-0.017235
25144166,-0.441370,1.393497,2.041431,0.417370,0.146534,0.006597,0.056272,-0.113628,0.005180
25344231,-0.357024,1.424798,2.046839,0.430095,0.135295,0.016841,0.059395,-0.101469,0.013860
25544218,-0.265081,1.447153,2.044791,0.452767,0.105909,0.003009,0.070181,-0.111950,-0.004516
25744171,-0.179161,1.461096,2.044344,0.450566,0.069415,-0.000501,0.053173,-0.127216,-0.007285
25944184,-0.084898,1.471478,2.047114,0.470490,0.040561,0.005561,0.063638,-0.131397,0.000188
26144355,0.002409,1.473476,2.044482,0.458561,0.005556,-0.002227,0.035691,-0.140044,-0.006370
26344169,0.094226,1.472791,2.043402,0.464531,-0.019860,-0.005215,0.034896,-0.137359,-0.008414
26544186,0.189025,1.464485,2.045082,0.473550,-0.052156,0.001133,0.036164,-0.142831,0.000144
26744170,0.276888,1.453542,2.048320,0.460489,-0.074863,0.008460,0.014941,-0.137021,0.007211
26944167,0.367539,1.434347,2.047522,0.459092,-0.106138,0.002981,0.010562,-0.140993,0.000073
27144208,0.451874,1.410115,2.046486,0.436220,-0.134398,-0.001871,-0.018073,-0.140751,-0.005372
27344194,0.532003,1.382725,2.045159,0.415875,-0.156040,-0.004406,-0.034606,-0.133722,-0.006353
27544178,0.618359,1.345885,2.040878,0.419395,-0.190418,-0.014068,-0.023276,-0.141563,-0.014885
27744398,0.698344,1.308516,2.041795,0.404854,-0.208849,-0.005795,-0.033969,-0.130976,-0.002770
27944205,0.780913,1.263148,2.042361,0.404737,-0.237300,-0.000363,-0.026726,-0.133011,0.004396
28144199,0.855332,1.213367,2.040930,0.380616,-0.261199,-0.002714,-0.048371,-0.128856,0.001503
28344180,0.926697,1.160737,2.040178,0.355900,-0.277721,-0.002967,-0.064272,-0.118090,0.000965
28544183,0.996836,1.104031,2.039069,0.344344,-0.298213,-0.004393,-0.062453,-0.114885,-0.000859
28744175,1.060739,1.044945,2.037294,0.321730,-0.313274,-0.006535,-0.073178,-0.106387,-0.002625
28944169,1.124906,0.978159,2.037775,0.308738,-0.337719,-0.001216,-0.071400,-0.108972,0.004160
29144167,1.184056,0.906839,2.036184,0.290466,-0.361725,-0.002835,-0.076180,-0.109829,0.002578
29344196,1.239277,0.831525,2.035647,0.271865,-0.386702,-0.002472,-0.079523,-0.113658,0.002347
29544276,1.290323,0.752510,2.035698,0.250562,-0.406314,0.000349,-0.085682,-0.109292,0.005586
29744184,1.331568,0.678874,2.037423,0.210841,-0.396475,0.005936,-0.110189,-0.073851,0.010533
29944186,1.370572,0.596077,2.037299,0.186590,-0.418338,0.003399,-0.112277,-0.082463,0.005245
30144167,1.405338,0.513894,2.038325,0.161813,-0.423925,0.004792,-0.115833,-0.069210,0.005341
30344182,1.435554,0.426524,2.039782,0.138933,-0.441526,0.006684,-0.115513,-0.073783,0.006032
30544185,1.460459,0.332871,2.040615,0.113961,-0.466035,0.006611,-0.117733,-0.083534,0.004946
30744162,1.478294,0.248913,2.042658,0.083123,-0.452976,0.009064,-0.125616,-0.052045,0.006301
30944163,1.493078,0.153874,2.044279,0.060349,-0.473681,0.009746,-0.122753,-0.063725,0.005881
31144167,1.501882,0.064711,2.045635,0.033199,-0.464914,0.008729,-0.125475,-0.039771,0.003377
31344185,1.503868,-0.030208,2.043793,0.001853,-0.476598,-0.000939,-0.132413,-0.044154,-0.007884
31544179,1.501687,-0.125385,2.043930,-0.024055,-0.480956,-0.000789,-0.131557,-0.038171,-0.005727
31744208,1.494803,-0.209414,2.045564,-0.048941,-0.450309,0.003668,-0.129968,0.003699,0.000544
31944164,1.479925,-0.301548,2.044872,-0.081120,-0.454532,0.000778,-0.135986,-0.002155,-0.001979
32144314,1.459219,-0.389465,2.042833,-0.112592,-0.444007,-0.005729,-0.140163,0.011215,-0.008641
32344178,1.434332,-0.478689,2.042512,-0.140178,-0.444408,-0.005728,-0.140210,0.007908,-0.007520
32544222,1.402892,-0.567892,2.040299,-0.168373,-0.436464,-0.010837,-0.139628,0.016471,-0.012135
32744294,1.367770,-0.652094,2.038758,-0.193466,-0.425279,-0.011708,-0.137265,0.024664,-0.011050
32944166,1.325277,-0.737152,2.036383,-0.223601,-0.422806,-0.012534,-0.139960,0.021406,-0.009013
33144178,1.282105,-0.810519,2.033556,-0.238119,-0.386922,-0.014132,-0.124539,0.056500,-0.008388
33344166,1.231937,-0.887792,2.032509,-0.261920,-0.376866,-0.009748,-0.123104,0.054445,-0.001447
33544179,1.175753,-0.960744,2.029793,-0.289350,-0.361163,-0.011701,-0.125493,0.060407,-0.003003
33744165,1.122711,-1.023077,2.027802,-0.292583,-0.324321,-0.010343,-0.101008,0.087360,-0.000301
33944179,1.059641,-1.088384,2.027319,-0.320911,-0.313745,-0.005594,-0.110500,0.079351,0.005171
34144180,0.994526,-1.144097,2.026008,-0.337564,-0.280369,-0.005529,-0.103587,0.099408,0.004035
34344164,0.925181,-1.198664,2.027869,-0.357419,-0.261408,0.002714,-0.102509,0.098733,0.011591
34544182,0.849870,-1.252255,2.028484,-0.382942,-0.250422,0.004016,-0.107923,0.089594,0.010119
34744176,0.774282,-1.297932,2.027516,-0.393343,-0.223818,0.000874,-0.095481,0.098612,0.004792
34944179,0.691540,-1.341517,2.027372,-0.418683,-0.206192,0.000554,-0.102353,0.096453,0.003312
35144179,0.612362,-1.377936,2.028103,-0.418813,-0.177551,0.002206,-0.079170,0.107389,0.003994
35344173,0.531754,-1.409026,2.027908,-0.423063,-0.150044,0.000335,-0.067848,0.113686,0.000614
35544182,0.443296,-1.435831,2.025797,-0.441766,-0.124762,-0.004632,-0.072684,0.116058,-0.004173
35744188,0.358661,-1.457500,2.025632,-0.442700,-0.098912,-0.003451,-0.058671,0.118843,-0.002241
35944179,0.264240,-1.474657,2.022924,-0.467363,-0.074602,-0.009193,-0.072399,0.119258,-0.007691
36144172,0.178430,-1.485346,2.021689,-0.455680,-0.045202,-0.008637,-0.043835,0.125429,-0.005403
36344167,0.084405,-1.493271,2.022215,-0.470210,-0.023653,-0.003509,-0.050129,0.121848,0.001037
36544183,-0.011386,-1.493152,2.022568,-0.480390,0.006941,0.000713,-0.048936,0.128155,0.006164
36744163,-0.099143,-1.485937,2.021780,-0.464411,0.041459,-0.000353,-0.021359,0.137575,0.004140
36944166,-0.194520,-1.472214,2.021965,-0.474640,0.077120,0.000389,-0.027912,0.146835,0.003637
37144175,-0.282764,-1.453944,2.021442,-0.457066,0.105745,-0.000766,-0.001612,0.145637,0.001635
37344184,-0.371490,-1.428848,2.018779,-0.450697,0.137010,-0.006381,0.004940,0.147385,-0.003908
37544197,-0.461583,-1.401514,2.017556,-0.448160,0.157027,-0.006534,0.007847,0.136457,-0.003040
37744182,-0.543864,-1.372917,2.019836,-0.426097,0.169047,0.003194,0.029152,0.120269,0.008227
37944171,-0.631961,-1.330922,2.018012,-0.429785,0.210439,-0.003698,0.018373,0.139865,-0.001752
38144403,-0.713073,-1.285693,2.017948,-0.411657,0.238053,-0.001486,0.035074,0.138600,0.001418
38344160,-0.790330,-1.237550,2.019548,-0.392918,0.260372,0.003304,0.047553,0.133304,0.005794
38544236,-0.866557,-1.182251,2.020053,-0.377280,0.286932,0.003940,0.054466,0.132514,0.005390
38744163,-0.932889,-1.129315,2.022105,-0.342482,0.292813,0.007545,0.081197,0.109776,0.007634
38944162,-1.000812,-1.068567,2.022990,-0.329902,0.315320,0.006914,0.076757,0.110756,0.005331
39144178,-1.063895,-1.005149,2.024467,-0.305483,0.327045,0.008570,0.086798,0.097985,0.006403
39344178,-1.123189,-0.935956,2.027406,-0.289029,0.352896,0.013109,0.085105,0.105493,0.010036
39544193,-1.180210,-0.860812,2.029488,-0.273602,0.380111,0.012248,0.084055,0.111569,0.006381
39744163,-1.229295,-0.789362,2.030216,-0.243861,0.379883,0.008685,0.098227,0.085718,0.001450
39944182,-1.276350,-0.708597,2.028861,-0.224313,0.405228,-0.000068,0.098175,0.094672,-0.008537
40144168,-1.314957,-0.630172,2.025989,-0.193066,0.411000,-0.008396,0.110378,0.080157,-0.015033
40344165,-1.352931,-0.543011,2.024205,-0.176204,0.436570,-0.009602,0.104180,0.090528,-0.012208
40544193,-1.387147,-0.455103,2.024519,-0.156036,0.446043,-0.005066,0.103638,0.079663,-0.004657
40744202,-1.412041,-0.372692,2.023287,-0.123944,0.439310,-0.005603,0.115561,0.055800,-0.003751
40944167,-1.431425,-0.285004,2.021604,-0.091604,0.448662,-0.008994,0.125900,0.055075,-0.007466
41144174,-1.447130,-0.196031,2.022362,-0.065941,0.452871,-0.002636,0.126571,0.046594,0.001203
41344182,-1.455974,-0.107322,2.024092,-0.034732,0.452612,0.003497,0.132917,0.036584,0.007323
41544172,-1.459118,-0.014754,2.025636,-0.005331,0.462961,0.007301,0.135662,0.039381,0.010145
41744219,-1.456668,0.076202,2.027351,0.024027,0.464973,0.009719,0.138061,0.033721,0.010719
41944162,-1.447188,0.167916,2.026026,0.056718,0.466704,0.002426,0.143309,0.028872,0.000744
42144186,-1.433684,0.252917,2.025270,0.083838,0.445625,-0.001961,0.141965,-0.001362,-0.004873
42344165,-1.414370,0.339445,2.024101,0.112006,0.439564,-0.005377,0.142151,-0.006653,-0.007904
42544175,-1.389100,0.430860,2.023656,0.140114,0.445891,-0.005017,0.141551,0.000878,-0.006001
42744168,-1.362275,0.511822,2.024183,0.156636,0.422064,-0.001216,0.128544,-0.024790,-0.000333
42944164,-1.326412,0.597091,2.022210,0.187250,0.420585,-0.005120,0.133434,-0.021283,-0.003819
43144166,-1.286354,0.674677,2.019390,0.213210,0.398785,-0.010350,0.132241,-0.040553,-0.008400
43344181,-1.245999,0.747711,2.020440,0.224641,0.370016,-0.003754,0.115884,-0.063091,-0.000092
43544200,-1.193641,0.827048,2.019669,0.261885,0.376359,-0.002720,0.130867,-0.042349,0.001784
43744193,-1.142458,0.896988,2.021538,0.277313,0.354569,0.004067,0.119237,-0.057227,0.008566
43944165,-1.082066,0.968051,2.023849,0.308774,0.346845,0.009207,0.127841,-0.053076,0.012069
44144198,-1.021721,1.030825,2.026734,0.322478,0.320250,0.014307,0.114554,-0.070608,0.015273
44344162,-0.956442,1.088924,2.027914,0.342128,0.294841,0.012568,0.111704,-0.081806,0.010627
44544192,-0.881864,1.149118,2.030940,0.372581,0.283546,0.014769,0.119771,-0.076651,0.010180
44744165,-0.811984,1.199736,2.032941,0.376532,0.254753,0.012825,0.098386,-0.091177,0.005377
44944185,-0.731208,1.251350,2.033722,0.406578,0.243755,0.008067,0.109946,-0.083201,-0.001283
45144184,-0.653372,1.294713,2.034046,0.411082,0.214812,0.003397,0.089998,-0.097775,-0.006660
45344188,-0.574952,1.333293,2.036695,0.414409,0.188451,0.007375,0.075104,-0.104916,-0.001323
45544196,-0.485574,1.368319,2.035062,0.443955,0.165150,-0.001694,0.091134,-0.107893,-0.010893
45744185,-0.404348,1.397341,2.043392,0.436121,0.139139,0.021895,0.063248,-0.112158,0.017464
45944182,-0.310671,1.421567,2.046304,0.462016,0.112881,0.020469,0.077510,-0.115840,0.012268
46144194,-0.221236,1.438445,2.044962,0.462726,0.079027,0.005976,0.060150,-0.128192,-0.006775
46344167,-0.131107,1.451727,2.046507,0.465778,0.053083,0.005164,0.051259,-0.128810,-0.006748
46544188,-0.038885,1.456138,2.040719,0.469892,0.016940,-0.015482,0.044152,-0.140165,-0.027971
46744185,0.051590,1.460116,2.043226,0.463438,-0.002811,-0.005452,0.026823,-0.131715,-0.012206
46944179,0.145839,1.456031,2.040943,0.472315,-0.031078,-0.008768,0.031043,-0.133395,-0.011909
47144164,0.236252,1.446069,2.039487,0.464349,-0.059787,-0.008901,0.015035,-0.134955,-0.009050
47344181,0.326924,1.431491,2.037757,0.461170,-0.087285,-0.010883,0.008916,-0.136010,-0.009812
47544166,0.420784,1.410048,2.035776,0.463475,-0.117513,-0.011523,0.008685,-0.138886,-0.008248
47744163,0.502148,1.385846,2.034627,0.434842,-0.139938,-0.009535,-0.022851,-0.133411,-0.004345
47944167,0.592987,1.353904,2.033136,0.442849,-0.170421,-0.009024,-0.008998,-0.137662,-0.002909
48144188,0.677706,1.319166,2.031646,0.429164,-0.191843,-0.008959,-0.022952,-0.130882,-0.002457
48344177,0.760992,1.278670,2.030892,0.418724,-0.216391,-0.005913,-0.028700,-0.129093,0.001661
48544212,0.838611,1.232500,2.027227,0.396785,-0.242582,-0.012513,-0.046581,-0.129161,-0.005724
48744190,0.911280,1.186463,2.028159,0.371710,-0.254313,-0.003508,-0.063320,-0.114030,0.005345
48944187,0.986133,1.131099,2.028464,0.361518,-0.282721,-0.000959,-0.060890,-0.120273,0.006194
49144165,1.053477,1.073038,2.027806,0.337939,-0.303706,-0.001497,-0.073856,-0.116554,0.004178
49344165,1.120007,1.008799,2.028022,0.324592,-0.331271,-0.000303,-0.072161,-0.121827,0.003962
49544179,1.179141,0.940456,2.026872,0.297749,-0.354939,-0.002816,-0.085727,-0.121234,0.000422
49744183,1.232446,0.870762,2.028358,0.265440,-0.366643,0.002316,-0.102568,-0.107170,0.005399
49944180,1.283619,0.794632,2.028908,0.244437,-0.389881,0.002310,-0.103700,-0.109081,0.003524
50144168,1.328720,0.718602,2.029833,0.218245,-0.400119,0.003160,-0.110022,-0.096585,0.003030
50344179,1.368868,0.640378,2.030533,0.193286,-0.409058,0.004556,-0.112306,-0.085903,0.004416
50544293,1.407989,0.555827,2.033162,0.178602,-0.427565,0.011008,-0.103750,-0.086333,0.011112
50744182,1.436804,0.472887,2.031206,0.144736,-0.432960,0.001451,-0.117649,-0.073614,-0.001251
50944197,1.464488,0.384761,2.033602,0.123600,-0.448148,0.006551,-0.115534,-0.074329,0.004089
51144282,1.482962,0.299910,2.033531,0.088670,-0.442311,0.003420,-0.128208,-0.051026,-0.000060
51344184,1.497520,0.209883,2.032903,0.062144,-0.453569,0.000574,-0.128588,-0.051805,-0.002516
51544220,1.509112,0.118679,2.036257,0.040742,-0.462910,0.008556,-0.124290,-0.051056,0.006156
51744226,1.513323,0.031962,2.036573,0.011819,-0.450833,0.006081,-0.128197,-0.026557,0.002518
51944251,1.511422,-0.061057,2.036501,-0.018440,-0.463433,0.003353,-0.133073,-0.035002,-0.000627
52144221,1.505458,-0.149223,2.038342,-0.043749,-0.454004,0.006610,-0.131527,-0.016028,0.003054
52344200,1.493283,-0.238728,2.037476,-0.072581,-0.452697,0.000424,-0.134448,-0.011118,-0.004612
52544221,1.473971,-0.331888,2.036840,-0.104754,-0.460070,-0.001678,-0.139709,-0.016003,-0.005489
52744195,1.450925,-0.413407,2.036014,-0.130193,-0.430141,-0.004121,-0.136624,0.021667,-0.007122
52944186,1.423537,-0.497880,2.035523,-0.154141,-0.424237,-0.004334,-0.133303,0.022282,-0.005866
53144231,1.388726,-0.583137,2.032869,-0.184596,-0.420295,-0.011273,-0.137539,0.022539,-0.012850
53344171,1.350454,-0.664742,2.031061,-0.208946,-0.410109,-0.012700,-0.134661,0.028727,-0.012197
53544206,1.306682,-0.748090,2.031432,-0.233804,-0.408997,-0.006550,-0.132344,0.024224,-0.003089
53744366,1.261899,-0.823817,2.031722,-0.246888,-0.387148,-0.002842,-0.117844,0.042819,0.001312
53944199,1.205250,-0.900815,2.028546,-0.285098,-0.380606,-0.010244,-0.134178,0.040219,-0.007155
54144207,1.147129,-0.974271,2.027292,-0.306924,-0.366223,-0.009282,-0.128355,0.047860,-0.004734
54344184,1.083889,-1.041947,2.025561,-0.331169,-0.343791,-0.009574,-0.127208,0.061735,-0.003992
54544276,1.015011,-1.105713,2.025419,-0.356015,-0.319410,-0.005433,-0.126100,0.075541,0.001161
54744187,0.952120,-1.159607,2.027768,-0.351395,-0.280646,0.003260,-0.094270,0.101013,0.009509
54944182,0.878129,-1.216387,2.028663,-0.376381,-0.268322,0.004714,-0.101570,0.092244,0.008617
55144217,0.803590,-1.266320,2.027628,-0.386081,-0.243485,0.001390,-0.088247,0.099752,0.003859
55344175,0.724361,-1.312222,2.026562,-0.405659,-0.221294,-0.002654,-0.091155,0.102169,-0.001895
55544243,0.643300,-1.352300,2.025391,-0.417573,-0.193379,-0.006296,-0.083672,0.111250,-0.006521
55744325,0.566018,-1.387454,2.027788,-0.412252,-0.167910,0.003502,-0.060102,0.114255,0.005863
55944163,0.477541,-1.419581,2.027372,-0.438476,-0.147633,0.001511,-0.075802,0.111367,0.002652
56144186,0.391938,-1.444786,2.026269,-0.442699,-0.119298,-0.001778,-0.063438,0.118018,-0.001260
56344181,0.303999,-1.466310,2.026420,-0.450177,-0.095278,-0.001229,-0.057814,0.118823,-0.000889
56544202,0.212654,-1.481377,2.025462,-0.461199,-0.068175,-0.000931,-0.056756,0.121577,0.001256
56744187,0.126956,-1.490595,2.025063,-0.451198,-0.038616,-0.001255,-0.033835,0.127012,0.000708
56944168,0.032625,-1.495696,2.024615,-0.467909,-0.012627,-0.002351,-0.044816,0.127895,-0.001074
57144415,-0.057628,-1.492377,2.021093,-0.455345,0.022519,-0.010770,-0.020544,0.137132,-0.009763
57344191,-0.149011,-1.486886,2.020771,-0.460191,0.045057,-0.007179,-0.022032,0.131882,-0.003874
57544176,-0.241508,-1.473381,2.018360,-0.463670,0.077525,-0.011524,-0.020343,0.139101,-0.008504
57744354,-0.329448,-1.455215,2.016739,-0.447972,0.105757,-0.012450,0.001810,0.139998,-0.008907
57944183,-0.419920,-1.431556,2.017444,-0.451050,0.132029,-0.003150,-0.002358,0.137557,0.004108
58144175,-0.500731,-1.403186,2.017080,-0.424134,0.156509,-0.001180,0.027717,0.133745,0.005784
58344168,-0.580939,-1.368710,2.016458,-0.408570,0.185846,-0.001974,0.037584,0.137384,0.003273
58544185,-0.666092,-1.326139,2.016769,-0.411397,0.220296,0.000367,0.026456,0.144780,0.005017
58744200,-0.739456,-1.282499,2.016666,-0.383424,0.240674,0.000342,0.050335,0.136018,0.003746
58944163,-0.818551,-1.230444,2.017154,-0.383505,0.271161,0.002553,0.038987,0.139506,0.005676
59144209,-0.889378,-1.178356,2.018544,-0.358707,0.283819,0.005231,0.058623,0.122323,0.006906
59344168,-0.955373,-1.120024,2.017949,-0.335607,0.306600,0.002410,0.069952,0.121022,0.002884
59544245,-1.021035,-1.055400,2.017362,-0.320488,0.333128,-0.001248,0.071801,0.123442,-0.002421
59744161,-1.078614,-0.993151,2.015526,-0.291580,0.338940,-0.006971,0.087737,0.103293,-0.008762
59944185,-1.138603,-0.922602,2.016153,-0.282273,0.359984,-0.002287,0.078212,0.103806,-0.001617
60144179,-1.190229,-0.851109,2.015931,-0.255972,0.371827,-0.001753,0.090720,0.093034,-0.000599
60344169,-1.237166,-0.773784,2.015161,-0.231449,0.394535,-0.002911,0.097299,0.098183,-0.001674
60544180,-1.281777,-0.690261,2.015985,-0.211046,0.420003,0.000126,0.098899,0.104000,0.001509
60744169,-1.316933,-0.610607,2.016704,-0.177349,0.422542,0.002890,0.113692,0.084128,0.004606
60944164,-1.350293,-0.524537,2.017663,-0.155830,0.439047,0.005330,0.111877,0.083796,0.006703
61144234,-1.377677,-0.438456,2.018798,-0.129415,0.444916,0.007596,0.116003,0.071144,0.008496
61344239,-1.400943,-0.345937,2.019717,-0.105525,0.465736,0.007303,0.116648,0.078751,0.006441
61544180,-1.418902,-0.252419,2.020136,-0.079279,0.476536,0.004886,0.120210,0.072241,0.002220
61744364,-1.429890,-0.166358,2.021338,-0.047605,0.460861,0.005089,0.128881,0.039791,0.001469
61944350,-1.438579,-0.071436,2.024858,-0.025983,0.470239,0.011911,0.124015,0.041309,0.008264
62144186,-1.439056,0.019805,2.022989,0.005846,0.466779,0.000324,0.132139,0.027493,-0.006601
62344206,-1.436697,0.110606,2.025951,0.028624,0.464927,0.007127,0.128471,0.020525,0.001923
62544195,-1.424390,0.204849,2.024291,0.066164,0.470406,-0.002141,0.141734,0.021249,-0.009214
62744182,-1.409767,0.288542,2.024714,0.089973,0.441697,-0.001034,0.136464,-0.015991,-0.005975
62944166,-1.390191,0.372346,2.024092,0.113901,0.428786,-0.002254,0.132734,-0.025037,-0.005452
63144176,-1.365818,0.459609,2.023710,0.137433,0.428609,-0.003121,0.129441,-0.020367,-0.005379
63344182,-1.336665,0.542393,2.023165,0.161949,0.417365,-0.005125,0.128875,-0.027229,-0.007365
63544232,-1.300756,0.630308,2.024512,0.190594,0.425885,0.000646,0.132143,-0.012180,0.000555
63744182,-1.260436,0.711999,2.026113,0.212012,0.405140,0.004853,0.125370,-0.032668,0.005001
63944179,-1.214947,0.790581,2.025399,0.238198,0.392928,0.000973,0.126338,-0.038851,-0.000195
64144207,-1.165593,0.865237,2.026412,0.260490,0.374708,0.003030,0.122685,-0.051143,0.001943
64344277,-1.111733,0.937175,2.026469,0.283167,0.359980,0.002435,0.120767,-0.055165,0.001357
64544197,-1.050533,1.010085,2.025825,0.312192,0.353500,-0.000549,0.125484,-0.050433,-0.002155
64744228,-1.010856,1.051642,2.025266,0.262223,0.260138,-0.001921,0.042192,-0.142293,-0.003032
64944184,-0.959307,1.101665,2.025749,0.268988,0.237869,0.000422,0.042607,-0.132975,0.000396
65144248,-0.894038,1.157398,2.025829,0.307019,0.240534,-0.000241,0.074364,-0.102061,-0.000918
65344178,-0.825656,1.209294,2.027367,0.339190,0.237918,0.004482,0.094333,-0.081881,0.004634
65544184,-0.747812,1.259924,2.029927,0.380559,0.235028,0.010753,0.118380,-0.067076,0.011093
65744183,-0.667574,1.303884,2.029207,0.409588,0.216754,0.003879,0.124462,-0.072395,0.000954
65944177,-0.584583,1.344026,2.026708,0.429770,0.196956,-0.005608,0.118992,-0.078295,-0.009805
66144219,-0.503068,1.378646,2.028358,0.433599,0.171796,0.000998,0.096919,-0.088899,-0.000446
66344173,-0.415375,1.409497,2.030704,0.450957,0.149271,0.006897,0.095212,-0.093970,0.005943
66544230,-0.324615,1.436423,2.035179,0.462866,0.125527,0.015533,0.086512,-0.099946,0.013363
66744187,-0.243335,1.450000,2.031510,0.443933,0.078127,-0.002404,0.047620,-0.130007,-0.009481
66944188,-0.154697,1.463631,2.033387,0.451338,0.054992,0.004431,0.046010,-0.126099,0.001046
67144385,-0.064744,1.469454,2.030898,0.456157,0.021808,-0.005504,0.040805,-0.135072,-0.010436
67344183,0.025053,1.468641,2.026159,0.459782,-0.010532,-0.014918,0.037067,-0.139790,-0.016878
67544190,0.120023,1.463793,2.024612,0.472413,-0.038273,-0.012973,0.041876,-0.139500,-0.010877
67744213,0.206805,1.454187,2.022690,0.456306,-0.063549,-0.012679,0.015061,-0.136511,-0.008275
67944195,0.296989,1.440813,2.026647,0.454516,-0.085364,0.003871,0.009712,-0.130747,0.011098
68144228,0.385999,1.419960,2.025201,0.449342,-0.114221,-0.000637,0.001190,-0.133291,0.003925
68344198,0.472489,1.395371,2.023546,0.440831,-0.138613,-0.004703,-0.007709,-0.131092,-0.001589
68544248,0.562882,1.364896,2.023187,0.444104,-0.164677,-0.003407,-0.002954,-0.130636,0.000085
68744275,0.641773,1.330387,2.019753,0.415091,-0.187705,-0.011129,-0.034128,-0.127181,-0.008302
68944185,0.725032,1.289847,2.019164,0.411757,-0.215559,-0.008251,-0.029719,-0.130553,-0.003721
69144184,0.803115,1.246018,2.019429,0.389282,-0.232923,-0.002924,-0.048961,-0.119549,0.003155
69344210,0.880589,1.196573,2.019438,0.382655,-0.258936,-0.000272,-0.044507,-0.122360,0.005717
69544195,0.957801,1.139998,2.019479,0.374974,-0.287310,0.001455,-0.043859,-0.125356,0.006778
69744199,1.024520,1.084317,2.019333,0.344793,-0.299686,0.001574,-0.066594,-0.111580,0.005696
69944176,1.089036,1.018213,2.016177,0.322319,-0.332265,-0.006567,-0.076768,-0.122133,-0.003813
70144210,1.146886,0.951570,2.014853,0.291760,-0.349318,-0.007376,-0.093832,-0.113434,-0.004013
70344192,1.205775,0.881102,2.017727,0.280018,-0.367884,0.003925,-0.085706,-0.109627,0.008845
70544177,1.262982,0.803814,2.019748,0.270622,-0.393247,0.008723,-0.077664,-0.112768,0.012146
70744212,1.304523,0.734696,2.017484,0.223293,-0.382514,-0.001679,-0.112494,-0.076771,-0.002301
70944173,1.347133,0.656330,2.016823,0.201524,-0.398685,-0.002311,-0.111591,-0.077579,-0.002060
71144251,1.385536,0.574627,2.016730,0.180084,-0.414494,-0.001439,-0.110541,-0.077447,-0.000581
71344164,1.418783,0.494705,2.017352,0.156395,-0.419319,-0.000131,-0.112232,-0.067306,0.000213
71544167,1.449657,0.405034,2.017159,0.138731,-0.444306,-0.000731,-0.107332,-0.079015,-0.000569
71744185,1.473732,0.320828,2.018538,0.111709,-0.437432,0.004125,-0.113185,-0.052776,0.005248
71944177,1.490857,0.234301,2.018519,0.080948,-0.443933,0.002423,-0.121838,-0.049486,0.002226
72144166,1.503956,0.147855,2.020620,0.054426,-0.443132,0.006604,-0.124374,-0.037041,0.005797
72344169,1.511576,0.061875,2.022107,0.026414,-0.435412,0.007767,-0.126800,-0.021610,0.005696
72544183,1.514636,-0.033191,2.023537,0.002235,-0.458557,0.009339,-0.124976,-0.041586,0.006901
72744195,1.511770,-0.123177,2.025965,-0.024932,-0.459576,0.012092,-0.127258,-0.033668,0.008487
72944189,1.506106,-0.210108,2.030589,-0.043156,-0.412192,0.019929,-0.114759,0.028986,0.015769
73144223,1.495852,-0.254131,2.025981,-0.062743,-0.308017,0.001194,-0.110196,0.130455,-0.005969
73344189,1.480787,-0.335516,2.028074,-0.086347,-0.348139,0.005623,-0.112363,0.056770,0.000139
73544186,1.456842,-0.428688,2.029838,-0.121680,-0.405652,0.006821,-0.126569,-0.017290,0.000933
73744200,1.434379,-0.501939,2.031488,-0.131765,-0.374896,0.007016,-0.108361,0.024040,0.000476
73944193,1.412515,-0.562260,2.031530,-0.135665,-0.335204,0.004035,-0.089782,0.058334,-0.002288
74144168,1.379003,-0.643206,2.030668,-0.166838,-0.365552,-0.001774,-0.104327,0.013147,-0.008654
74344180,1.338441,-0.726952,2.029600,-0.201878,-0.392302,-0.005106,-0.119868,-0.019055,-0.010439
74544182,1.289954,-0.809909,2.027826,-0.241623,-0.406071,-0.009171,-0.136664,-0.028724,-0.012826
74744196,1.241818,-0.883723,2.028916,-0.260321,-0.388828,-0.002248,-0.127070,-0.003503,-0.002213
74944199,1.184071,-0.957379,2.028079,-0.294425,-0.377105,-0.003782,-0.136555,0.010023,-0.003476
75144203,1.122721,-1.025112,2.026623,-0.320442,-0.352787,-0.006717,-0.134810,0.035001,-0.006243
75344183,1.059503,-1.086707,2.025410,-0.337263,-0.322624,-0.006882,-0.123780,0.059961,-0.004796
75544180,0.988698,-1.149099,2.025146,-0.363853,-0.306271,-0.005339,-0.125925,0.065025,-0.002720
75744186,0.922245,-1.201568,2.026936,-0.363539,-0.271316,0.002058,-0.097894,0.089375,0.005709
75944176,0.844077,-1.252769,2.027230,-0.392989,-0.250939,0.004278,-0.108566,0.091313,0.008101
76144198,0.768497,-1.293531,2.026418,-0.398356,-0.209801,0.000378,-0.090114,0.116673,0.001875
76344607,0.694533,-1.330842,2.029644,-0.395783,-0.179549,0.008862,-0.068456,0.124192,0.010221
76544155,0.609443,-1.365771,2.027521,-0.422240,-0.158300,-0.001787,-0.081864,0.120987,-0.004281
76744176,0.531085,-1.396543,2.029335,-0.417289,-0.138578,0.003231,-0.059094,0.116027,0.001721
76944206,0.441511,-1.424838,2.029896,-0.442600,-0.123048,0.002943,-0.074168,0.107599,0.000853
77144190,0.350642,-1.446709,2.030692,-0.458679,-0.099611,0.003748,-0.074726,0.109853,0.001598
77344165,0.261305,-1.461847,2.029288,-0.464076,-0.070485,-0.002106,-0.065351,0.117464,-0.005039
77544165,0.167340,-1.473656,2.031327,-0.475295,-0.046798,0.004420,-0.062308,0.117929,0.003367
77744207,0.078305,-1.479061,2.032061,-0.465967,-0.018444,0.004451,-0.038273,0.123141,0.002645
77944189,-0.017547,-1.479422,2.033609,-0.479348,0.008548,0.006589,-0.044729,0.125653,0.004310
78144170,-0.106192,-1.474644,2.034770,-0.463454,0.035392,0.006657,-0.016510,0.127630,0.003347
78344159,-0.195128,-1.464252,2.035570,-0.454466,0.063097,0.005845,-0.003396,0.129919,0.001917
78544185,-0.287895,-1.447339,2.034861,-0.459804,0.094252,0.000126,-0.008249,0.135781,-0.005166
78744161,-0.374155,-1.426893,2.034720,-0.444741,0.117951,-0.000330,0.009965,0.131805,-0.003986
78944167,-0.462898,-1.400924,2.036197,-0.442511,0.143888,0.002956,0.010434,0.131550,0.000081
79144208,-0.546519,-1.370138,2.036745,-0.422787,0.167110,0.002845,0.030480,0.127526,-0.000037
79344168,-0.628668,-1.335994,2.037750,-0.412100,0.187842,0.003821,0.035098,0.122629,0.000858
79544187,-0.712901,-1.292938,2.035664,-0.410876,0.220552,-0.004436,0.029752,0.131231,-0.008534
79744183,-0.788943,-1.248687,2.033043,-0.389432,0.239760,-0.010469,0.046082,0.123669,-0.013149
79944180,-0.868910,-1.197530,2.033173,-0.388573,0.267204,-0.006603,0.037088,0.127041,-0.006447
80144183,-0.937830,-1.143143,2.032069,-0.357094,0.287176,-0.006446,0.064011,0.120539,-0.004559
80344161,-1.003294,-1.084353,2.033456,-0.332190,0.308778,0.000881,0.076373,0.118152,0.004696
80544198,-1.068927,-1.016368,2.033151,-0.318556,0.343418,-0.000124,0.074677,0.130301,0.002346
80744188,-1.124749,-0.950648,2.033470,-0.285445,0.353254,0.001207,0.094438,0.112372,0.003323
80944178,-1.181336,-0.876814,2.033102,-0.270712,0.378729,-0.000138,0.089798,0.115891,0.001029
81144186,-1.230956,-0.804262,2.033132,-0.242566,0.383529,-0.000330,0.101715,0.094753,0.000244
81344186,-1.273275,-0.732281,2.031464,-0.211393,0.386148,-0.005535,0.112878,0.078583,-0.005949
81544179,-1.313315,-0.652382,2.029455,-0.187739,0.404841,-0.010315,0.114806,0.081732,-0.010783
81744166,-1.347926,-0.575591,2.031243,-0.162783,0.405021,-0.001051,0.117105,0.064351,0.001573
81944227,-1.378682,-0.488488,2.031221,-0.141051,0.430335,0.000394,0.114907,0.077466,0.003259
82144175,-1.404540,-0.405640,2.032443,-0.117734,0.431139,0.004225,0.115420,0.060709,0.006775
82344175,-1.423638,-0.321498,2.032378,-0.089027,0.434939,0.003127,0.121226,0.052372,0.004448
82544190,-1.439323,-0.229563,2.032655,-0.065348,0.455469,0.002751,0.120741,0.062791,0.003049
82744174,-1.450146,-0.142223,2.033996,-0.042489,0.453208,0.006639,0.118791,0.046250,0.007422
82944179,-1.453945,-0.053952,2.033353,-0.012802,0.454119,0.002654,0.124825,0.037891,0.001787
83144191,-1.451140,0.032452,2.030782,0.019998,0.444528,-0.005334,0.132846,0.018815,-0.006929
83344230,-1.445311,0.114139,2.030529,0.045103,0.426611,-0.005332,0.131673,-0.003935,-0.006289
83544182,-1.435690,0.201813,2.030535,0.065332,0.432046,-0.002822,0.124783,0.002352,-0.001910
83744168,-1.420627,0.282189,2.028203,0.088729,0.414909,-0.007865,0.123008,-0.017031,-0.006834
83944185,-1.400049,0.366538,2.028531,0.114525,0.416246,-0.003151,0.124407,-0.011062,0.000002
84144169,-1.373807,0.453358,2.028631,0.141218,0.422477,-0.001466,0.125968,-0.003446,0.001583
84344164,-1.343289,0.536299,2.029015,0.166280,0.418799,0.000611,0.126231,-0.005840,0.003427
84544164,-1.305399,0.620261,2.028934,0.197121,0.416507,0.000267,0.132041,-0.008504,0.002127
84744198,-1.265804,0.695105,2.028875,0.215440,0.389210,-0.000158,0.122725,-0.036822,0.000923
84944166,-1.219721,0.775063,2.027814,0.242104,0.391107,-0.003073,0.125426,-0.025993,-0.002537
85144403,-1.172879,0.847433,2.028636,0.255135,0.369365,0.000502,0.112051,-0.044774,0.001839
85344168,-1.122864,0.912756,2.029593,0.267780,0.337200,0.002858,0.101603,-0.069806,0.003768
85544181,-1.067442,0.976192,2.030487,0.288748,0.316649,0.003873,0.103037,-0.076454,0.003748
85744171,-1.008589,1.036874,2.031913,0.306313,0.297212,0.005656,0.099484,-0.081611,0.004500
85944167,-0.942807,1.099863,2.036481,0.330942,0.291955,0.014903,0.104565,-0.069607,0.012844
86144173,-0.870211,1.158056,2.036650,0.363217,0.281207,0.009809,0.116346,-0.066279,0.005216
86344176,-0.801068,1.209141,2.038924,0.370314,0.257697,0.011641,0.099027,-0.076999,0.006215
86544184,-0.722043,1.257547,2.037338,0.397972,0.236924,0.000847,0.107256,-0.083378,-0.007343
86744173,-0.646813,1.296614,2.034681,0.399474,0.201194,-0.007577,0.084566,-0.104221,-0.014465
86944162,-0.564213,1.337096,2.032827,0.420106,0.187879,-0.010710,0.089190,-0.095412,-0.014834
87144168,-0.481551,1.367642,2.026104,0.426514,0.153594,-0.024348,0.075001,-0.112456,-0.025449
87344300,-0.403360,1.398212,2.029940,0.415867,0.135144,-0.005443,0.046781,-0.109015,-0.000783
87544194,-0.323006,1.419592,2.027642,0.414660,0.102942,-0.009570,0.035293,-0.120732,-0.005484
87744192,-0.246551,1.436954,2.027613,0.403670,0.077210,-0.004879,0.017301,-0.121924,0.000950
87944184,-0.163318,1.451534,2.027101,0.411681,0.057252,-0.003039,0.021224,-0.117133,0.003002
88144193,-0.078569,1.460486,2.022897,0.421407,0.033055,-0.013673,0.027083,-0.118215,-0.009829
88344205,0.005914,1.466660,2.019651,0.425320,0.016299,-0.014248,0.025046,-0.109793,-0.006828
88544202,0.094569,1.466396,2.017169,0.438507,-0.009228,-0.013728,0.033843,-0.113462,-0.004473
88744178,0.178731,1.460672,2.017594,0.433757,-0.035426,-0.003852,0.021595,-0.116613,0.008185
88944167,0.268514,1.451522,2.020667,0.446707,-0.058152,0.008207,0.031853,-0.116070,0.019514
89144224,0.353040,1.435879,2.019686,0.435314,-0.085525,0.004172,0.012018,-0.120097,0.011288
89344211,0.436951,1.416768,2.019868,0.426724,-0.107584,0.004842,-0.000781,-0.117407,0.010158
89544219,0.515286,1.393682,2.018830,0.406143,-0.128671,0.000423,-0.023435,-0.114681,0.003003
89744191,0.589516,1.367609,2.018639,0.382885,-0.146290,-0.000076,-0.042839,-0.109165,0.001674
89944170,0.663334,1.337129,2.019559,0.369785,-0.165594,0.003229,-0.047083,-0.106587,0.005164
90144195,0.734974,1.299574,2.018044,0.355223,-0.192367,-0.001788,-0.053507,-0.111754,-0.001133
90344168,0.808803,1.259121,2.019002,0.356755,-0.214797,0.001754,-0.039287,-0.112408,0.002949
90544195,0.887732,1.208668,2.018939,0.370740,-0.251104,0.000984,-0.016221,-0.126952,0.001426
90744191,0.954853,1.157795,2.017433,0.347745,-0.271554,-0.004600,-0.038189,-0.121845,-0.005585
90944146,1.021881,1.103119,2.018570,0.336561,-0.291036,0.000654,-0.041075,-0.117194,0.001507
91144178,1.086105,1.042032,2.017325,0.320329,-0.314581,-0.002947,-0.050889,-0.116340,-0.002688
91344178,1.147497,0.977175,2.019101,0.304618,-0.336169,0.003648,-0.057212,-0.114267,0.005284
91544189,1.202851,0.905875,2.017820,0.280490,-0.363540,-0.001004,-0.071100,-0.118806,-0.000739
91744166,1.252500,0.837276,2.019632,0.251998,-0.368960,0.004445,-0.086614,-0.098905,0.005251
91944187,1.299290,0.764236,2.021537,0.229426,-0.380304,0.009097,-0.091398,-0.090070,0.009890
92144164,1.340083,0.685774,2.019479,0.201714,-0.398295,0.000367,-0.101793,-0.088905,-0.001222
92344190,1.378232,0.605681,2.021312,0.181452,-0.412111,0.005813,-0.101319,-0.084453,0.005415
92544203,1.410956,0.522060,2.022336,0.156536,-0.427311,0.005950,-0.106581,-0.082357,0.004230
92744206,1.436195,0.441069,2.022520,0.124245,-0.425144,0.004553,-0.117840,-0.062086,0.002357
92944161,1.460697,0.354804,2.026030,0.106122,-0.438239,0.011524,-0.112114,-0.063290,0.008897
93144188,1.478252,0.266011,2.025935,0.079438,-0.449381,0.005797,-0.116858,-0.060851,0.000641
93344182,1.492112,0.178809,2.027852,0.057072,-0.449197,0.008970,-0.115480,-0.046971,0.004597
93544181,1.499260,0.098185,2.029187,0.028228,-0.429643,0.008269,-0.121483,-0.016556,0.002795
93744164,1.502151,0.014034,2.029060,0.003115,-0.427939,0.003682,-0.122282,-0.011721,-0.002735
93944169,1.499547,-0.076001,2.029835,-0.022812,-0.442714,0.004256,-0.123380,-0.025584,-0.000942
94144291,1.492882,-0.164264,2.029136,-0.046986,-0.443779,-0.001166,-0.123222,-0.019998,-0.007306
94344200,1.482551,-0.251347,2.032079,-0.068091,-0.442309,0.006063,-0.119887,-0.014491,0.001671
94544186,1.464438,-0.342602,2.034933,-0.098317,-0.451953,0.010537,-0.126847,-0.021542,0.005909
94744173,1.441324,-0.430009,2.035360,-0.125371,-0.446355,0.007343,-0.128071,-0.010606,0.001616
94944182,1.417804,-0.514269,2.039706,-0.139114,-0.432705,0.015768,-0.115066,0.006372,0.010472
95144190,1.386269,-0.595147,2.039063,-0.165633,-0.414203,0.006310,-0.118529,0.026101,-0.002183
95344202,1.351481,-0.674679,2.041768,-0.187638,-0.401411,0.010060,-0.116928,0.034082,0.002326
95544207,1.309612,-0.755359,2.043423,-0.214064,-0.392692,0.009831,-0.118987,0.037182,0.001953
95744193,1.266340,-0.828970,2.045557,-0.232834,-0.373678,0.010109,-0.113796,0.049555,0.001534
95944182,1.214915,-0.902341,2.046384,-0.263623,-0.362938,0.006424,-0.123053,0.050303,-0.003215
96144197,1.161690,-0.970589,2.047647,-0.281675,-0.342204,0.005798,-0.115269,0.062653,-0.003256
96344176,1.107966,-1.033132,2.049478,-0.290183,-0.316422,0.007740,-0.099043,0.077111,-0.000085
96544176,1.044654,-1.097621,2.050658,-0.318917,-0.309075,0.007441,-0.108441,0.068135,0.000151
96744197,0.978109,-1.156518,2.049723,-0.340315,-0.288800,0.000438,-0.107966,0.075094,-0.007557
96944200,0.930398,-1.193846,2.049925,-0.296557,-0.220007,0.000565,-0.035935,0.133579,-0.005161
97144190,0.867845,-1.237957,2.049016,-0.311098,-0.202500,-0.002012,-0.044068,0.122653,-0.006103
97344181,0.795704,-1.285841,2.050116,-0.344570,-0.205490,0.001614,-0.070648,0.092533,-0.000660
97544186,0.713491,-1.330666,2.047492,-0.391521,-0.202421,-0.006552,-0.105719,0.076028,-0.009218
97744183,0.636854,-1.365734,2.043862,-0.401547,-0.175147,-0.015529,-0.093359,0.089794,-0.017653
97944183,0.559369,-1.400142,2.045971,-0.408035,-0.160971,-0.003247,-0.080908,0.085340,-0.000406
98144174,0.472169,-1.428409,2.042352,-0.432973,-0.136605,-0.011436,-0.089431,0.093542,-0.009061
98344177,0.388946,-1.451855,2.041734,-0.434907,-0.111877,-0.007926,-0.071186,0.100317,-0.003225
98544172,0.301599,-1.468989,2.038384,-0.446241,-0.082327,-0.013887,-0.068067,0.110883,-0.009391
98744167,0.215595,-1.481551,2.036316,-0.445417,-0.053696,-0.014751,-0.052684,0.118601,-0.009436
98944166,0.134880,-1.490901,2.037024,-0.428424,-0.032226,-0.006100,-0.022224,0.116533,0.001742
99144172,0.050288,-1.493865,2.037103,-0.428295,-0.005226,-0.003029,-0.017127,0.120875,0.004059
99344180,-0.036238,-1.492083,2.037189,-0.431792,0.019951,-0.000350,-0.017393,0.121579,0.006204
99544192,-0.124108,-1.483520,2.035426,-0.437414,0.049802,-0.003520,-0.019476,0.127155,0.001898
99744175,-0.203430,-1.472453,2.035905,-0.416743,0.070188,0.001554,0.007430,0.120995,0.007991
99944194,-0.286129,-1.454415,2.034522,-0.415155,0.098065,-0.001031,0.006578,0.124474,0.004144
100144229,-0.370128,-1.430219,2.032191,-0.415413,0.126539,-0.003445,0.005506,0.126819,0.002604
100344202,-0.452545,-1.404245,2.033025,-0.411482,0.146136,0.001357,0.009479,0.120250,0.007309
100544176,-0.536781,-1.371192,2.030330,-0.415779,0.174890,-0.007058,0.002668,0.125821,-0.004164
100744208,-0.614924,-1.337062,2.030342,-0.402061,0.191162,-0.003966,0.016209,0.116623,-0.000138
100944191,-0.695870,-1.293732,2.028214,-0.401863,0.222922,-0.008081,0.012507,0.126188,-0.004793
101144167,-0.771475,-1.247579,2.027441,-0.386672,0.244856,-0.005754,0.026228,0.122161,-0.000762
101344182,-0.845816,-1.196763,2.026015,-0.372726,0.266764,-0.006899,0.036301,0.119046,-0.002008
101544199,-0.918498,-1.141892,2.024955,-0.362277,0.288228,-0.006094,0.039772,0.116527,-0.000552
101744203,-0.982596,-1.084626,2.024400,-0.333746,0.303557,-0.002945,0.061547,0.107675,0.003881
101944162,-1.042581,-1.022322,2.024824,-0.306793,0.323593,0.001696,0.076742,0.106122,0.008918
102144215,-1.100172,-0.956354,2.025322,-0.283160,0.339339,0.004123,0.086220,0.098672,0.010125
102344193,-1.153124,-0.886653,2.025048,-0.259763,0.357265,0.003001,0.093375,0.095754,0.007013
102544192,-1.202529,-0.816870,2.028738,-0.240217,0.367747,0.012625,0.093592,0.087374,0.015844
102744194,-1.247132,-0.742037,2.028997,-0.217331,0.382951,0.009461,0.097489,0.084718,0.009606
102944202,-1.286909,-0.665715,2.028843,-0.193212,0.394687,0.005056,0.102305,0.079283,0.002750
103144191,-1.325483,-0.584091,2.029708,-0.177644,0.412308,0.004777,0.097463,0.080260,0.001693
103344181,-1.358513,-0.502702,2.031637,-0.156542,0.420014,0.008074,0.099263,0.070641,0.005106
103544183,-1.385891,-0.417958,2.030160,-0.131040,0.432172,-0.000127,0.105329,0.068712,-0.005038
103744171,-1.409035,-0.333571,2.029983,-0.107589,0.436455,-0.000982,0.107682,0.058614,-0.004660
103944190,-1.427364,-0.249119,2.028406,-0.082596,0.437719,-0.006198,0.111801,0.047835,-0.009746
104144186,-1.439977,-0.167003,2.027861,-0.054684,0.424770,-0.005451,0.117145,0.023385,-0.006659
104344184,-1.448586,-0.078477,2.027931,-0.031398,0.437674,-0.002875,0.116929,0.031919,-0.002261
104544198,-1.451144,0.007117,2.027028,-0.003616,0.437453,-0.004765,0.122050,0.025182,-0.004286
104744196,-1.450125,0.092247,2.028564,0.019313,0.433422,0.001315,0.120576,0.015696,0.002987
104944192,-1.442046,0.179114,2.026986,0.048189,0.437037,-0.002902,0.125503,0.016796,-0.001850
105144166,-1.430309,0.265836,2.027395,0.071619,0.435514,0.000058,0.123363,0.010151,0.002030
105344220,-1.409144,0.351186,2.022417,0.108150,0.432470,-0.012632,0.135910,0.004990,-0.011426
105544615,-1.386076,0.436505,2.021567,0.131679,0.426958,-0.010450,0.131960,-0.002083,-0.007213
105744179,-1.359343,0.516152,2.019596,0.152123,0.411235,-0.011279,0.125757,-0.018454,-0.006657
105944191,-1.328021,0.597488,2.018920,0.173295,0.405844,-0.008544,0.121858,-0.020408,-0.002790
106144508,-1.288779,0.680202,2.017608,0.202561,0.403619,-0.007690,0.126846,-0.018716,-0.001222
106344189,-1.245911,0.756485,2.016626,0.227257,0.389349,-0.005343,0.125930,-0.029751,0.002244
106544196,-1.196626,0.830938,2.015995,0.256143,0.375321,-0.003742,0.129922,-0.038617,0.003486
106744188,-1.146799,0.900845,2.016333,0.270850,0.355063,-0.000482,0.117714,-0.052333,0.006035
106944229,-1.090299,0.968589,2.014115,0.294438,0.336395,-0.007221,0.118700,-0.060861,-0.003789
107144197,-1.031938,1.030788,2.012889,0.308115,0.310709,-0.007442,0.106725,-0.076930,-0.003415
107344263,-0.969292,1.090717,2.013793,0.325018,0.292336,-0.001052,0.101004,-0.080872,0.004363
107544194,-0.902061,1.145621,2.012469,0.342946,0.268219,-0.003281,0.098009,-0.089146,0.001188
107744196,-0.832093,1.196227,2.011077,0.360797,0.246612,-0.005573,0.096414,-0.092933,-0.001813
107944259,-0.757529,1.244648,2.012062,0.382195,0.231257,0.000510,0.099263,-0.089038,0.005449
108144200,-0.678961,1.286301,2.011139,0.401398,0.204480,-0.002438,0.097825,-0.099497,0.000463
108344206,-0.597684,1.322799,2.006231,0.416471,0.177371,-0.014621,0.092679,-0.106822,-0.012741
108545018,-0.515023,1.358887,2.008050,0.427047,0.163563,-0.001783,0.083955,-0.098398,0.004757
108744176,-0.431696,1.390450,2.014778,0.434434,0.147696,0.020439,0.073987,-0.093594,0.028868
108944170,-0.344986,1.413965,2.016554,0.445547,0.116892,0.017674,0.070671,-0.106991,0.019308
109144253,-0.257823,1.431866,2.018195,0.449158,0.085172,0.014018,0.059002,-0.118584,0.010413
109344290,-0.172811,1.445906,2.021006,0.444596,0.059852,0.015390,0.041603,-0.120210,0.009581
109544172,-0.083092,1.492000,2.070071,0.451398,0.155241,0.168625,0.038912,0.020689,0.189079
109744377,0.009017,1.464046,2.024106,0.463122,-0.003260,-0.022065,0.044016,-0.152507,-0.054343
109944187,0.091021,1.456449,2.014064,0.434364,-0.043799,-0.044052,0.001265,-0.162443,-0.065259
110144183,0.174819,1.452036,2.018633,0.426631,-0.053816,-0.014445,-0.006830,-0.137409,-0.018262
110344178,0.261892,1.441885,2.020444,0.430394,-0.072008,-0.004436,-0.001116,-0.127447,-0.003911
110544514,0.351068,1.425191,2.019977,0.438846,-0.097100,-0.004173,0.008395,-0.127203,-0.002996
110744187,0.437167,1.404764,2.020578,0.436853,-0.118582,-0.000426,0.005245,-0.123173,0.001803
110944186,0.522745,1.378196,2.019465,0.433494,-0.145146,-0.003700,0.001101,-0.125832,-0.002567
111144165,0.604717,1.347550,2.020751,0.418167,-0.167583,0.001095,-0.016073,-0.122891,0.002811
111344188,0.683808,1.311529,2.018943,0.403376,-0.191898,-0.003808,-0.028386,-0.122308,-0.002797
111544182,0.764691,1.271303,2.018659,0.399930,-0.214285,-0.002572,-0.025961,-0.119764,-0.000630
111744178,0.840602,1.227641,2.018176,0.382986,-0.232767,-0.002262,-0.038297,-0.113627,0.000071
111944181,0.912088,1.180340,2.017157,0.363960,-0.251706,-0.003738,-0.049998,-0.109887,-0.001478
112144184,0.982403,1.127259,2.015809,0.347840,-0.273787,-0.005252,-0.057985,-0.109006,-0.002526
112344179,1.049315,1.071690,2.017531,0.331670,-0.291252,0.002416,-0.063174,-0.103935,0.006551
112544207,1.112873,1.009464,2.015042,0.315246,-0.317564,-0.004929,-0.066696,-0.110189,-0.002775
112744198,1.168277,0.948343,2.013007,0.284355,-0.327456,-0.008811,-0.085519,-0.097638,-0.006757
112944223,1.225992,0.878533,2.014668,0.274757,-0.353881,0.000444,-0.077134,-0.105296,0.005150
113144204,1.276437,0.802621,2.012173,0.250466,-0.383321,-0.006289,-0.087117,-0.114312,-0.003429
113344260,1.320128,0.728469,2.010819,0.218171,-0.390061,-0.006953,-0.103104,-0.096374,-0.003391
113544239,1.362842,0.651525,2.012874,0.200826,-0.402070,0.001170,-0.099510,-0.089303,0.005393
113744494,1.400911,0.571441,2.013269,0.179643,-0.413833,0.001380,-0.101445,-0.082727,0.003784
113944361,1.434650,0.490673,2.014222,0.159376,-0.418232,0.005342,-0.100409,-0.069201,0.008331
114144238,1.460982,0.410047,2.013665,0.129756,-0.418458,0.003217,-0.110493,-0.053591,0.005076
114344222,1.482952,0.326927,2.013526,0.102255,-0.424096,0.001303,-0.116646,-0.047781,0.001571
114544224,1.500932,0.237556,2.014875,0.078169,-0.440658,0.005277,-0.116736,-0.055223,0.006035
114744223,1.509654,0.151845,2.011519,0.042764,-0.442839,-0.005166,-0.129298,-0.046394,-0.005945
114944194,1.516691,0.065892,2.012836,0.019606,-0.442149,0.000211,-0.126597,-0.035658,0.000887
115144223,1.518287,-0.013981,2.013052,-0.005838,-0.420162,-0.000406,-0.127228,-0.002031,-0.000846
115344226,1.515406,-0.097098,2.013924,-0.027842,-0.417308,0.003822,-0.122557,0.000938,0.005051
115544189,1.506192,-0.184613,2.013258,-0.055625,-0.430051,0.000749,-0.126044,-0.013976,0.000776
115744174,1.492468,-0.271842,2.013295,-0.081034,-0.435942,0.000925,-0.126255,-0.017665,0.001061
115944174,1.471938,-0.359343,2.011946,-0.110226,-0.436369,-0.002350,-0.129722,-0.014495,-0.002119
116144199,1.449737,-0.442760,2.013626,-0.128755,-0.426136,0.003356,-0.121323,0.000663,0.004501
116344443,1.421146,-0.525184,2.013212,-0.152009,-0.411316,0.001428,-0.119130,0.017141,0.001788
116544290,1.387695,-0.602094,2.012648,-0.178419,-0.394322,-0.001233,-0.122509,0.030808,-0.001837
116744206,1.351425,-0.675748,2.011551,-0.198863,-0.376578,-0.004570,-0.118905,0.042413,-0.005475
116944165,1.309674,-0.754059,2.012443,-0.221358,-0.378617,0.000034,-0.117421,0.031196,0.000917
117144202,1.261257,-0.829463,2.012357,-0.247870,-0.367921,-0.001089,-0.120226,0.037055,-0.001211
117344191,1.210283,-0.900014,2.012347,-0.268987,-0.352926,-0.001435,-0.117203,0.045539,-0.001852
117544205,1.154115,-0.969964,2.012772,-0.292641,-0.345291,0.000687,-0.117502,0.043507,0.001107
117744164,1.094911,-1.034286,2.011603,-0.311564,-0.325605,-0.003060,-0.112649,0.055468,-0.003352
117944202,1.030169,-1.097059,2.010767,-0.333711,-0.309921,-0.004326,-0.112034,0.060590,-0.004114
118144193,0.962442,-1.155998,2.010908,-0.351688,-0.291987,-0.001870,-0.106636,0.067307,-0.000403
118344190,0.893206,-1.209512,2.010946,-0.363925,-0.268540,-0.000604,-0.096835,0.078137,0.001140
118544207,0.815846,-1.261075,2.010943,-0.390007,-0.250362,-0.000375,-0.104107,0.080975,0.000967
118744199,0.739920,-1.305219,2.011103,-0.398809,-0.221608,0.000140,-0.090888,0.094848,0.001117
118944196,0.663212,-1.342718,2.009802,-0.404060,-0.189015,-0.003878,-0.077465,0.109395,-0.003749
119144192,0.595748,-1.372527,2.008878,-0.368464,-0.146915,-0.003808,-0.020842,0.130142,-0.002155
119344167,0.516174,-1.404889,2.010942,-0.389590,-0.137183,0.003807,-0.040334,0.112073,0.006551
119544299,0.429848,-1.432323,2.010377,-0.418713,-0.121032,0.001117,-0.063158,0.105148,0.002304
119744179,0.347876,-1.453682,2.009681,-0.423288,-0.097965,-0.001265,-0.054722,0.107364,-0.000877
119944168,0.257709,-1.472020,2.007501,-0.446799,-0.080201,-0.005210,-0.068440,0.102446,-0.003750
120144185,0.167530,-1.486695,2.009007,-0.455449,-0.061740,0.002973,-0.061853,0.099668,0.007011
120344192,0.081429,-1.492112,2.008313,-0.449869,-0.027675,0.000740,-0.042138,0.115113,0.003327
120544213,-0.010284,-1.493145,2.009701,-0.460034,0.001740,0.004483,-0.043444,0.122167,0.006510
120744193,-0.098452,-1.489805,2.011164,-0.456685,0.028010,0.007011,-0.031260,0.124352,0.007863
120944171,-0.181962,-1.480667,2.011292,-0.438226,0.055760,0.004841,-0.004613,0.127322,0.004022
121144186,-0.267729,-1.465137,2.011986,-0.431959,0.086336,0.004573,0.004304,0.132795,0.002843
121344204,-0.352933,-1.442734,2.010843,-0.425406,0.119472,-0.001075,0.010775,0.139566,-0.004011
121544171,-0.440660,-1.419919,2.013754,-0.431311,0.136591,0.006469,0.002081,0.127926,0.004568
121744180,-0.512112,-1.395147,2.012198,-0.392082,0.149028,-0.001509,0.042111,0.114558,-0.005454
121944169,-0.591872,-1.364032,2.011975,-0.389033,0.169512,-0.002995,0.036811,0.112147,-0.006498
122144182,-0.668417,-1.327098,2.009870,-0.377076,0.192618,-0.007823,0.042739,0.112062,-0.010057
122344181,-0.743087,-1.286120,2.009455,-0.369053,0.216439,-0.006470,0.042016,0.114174,-0.006747
122544180,-0.818373,-1.238042,2.009804,-0.365415,0.245974,-0.002994,0.036903,0.121583,-0.001629
122744214,-0.890104,-1.184424,2.009766,-0.357348,0.277047,-0.001958,0.036934,0.129670,-0.000347
122944179,-0.956168,-1.128549,2.010869,-0.338213,0.297602,0.002786,0.048708,0.124303,0.005215
123144174,-1.017411,-1.068980,2.011092,-0.312076,0.314922,0.002120,0.067204,0.115697,0.003038
123344222,-1.074924,-1.006610,2.011254,-0.286492,0.328399,0.001139,0.080183,0.105310,0.000840
123544186,-1.132930,-0.937840,2.010322,-0.277466,0.351414,-0.001318,0.072272,0.106836,-0.001520
123744180,-1.183421,-0.870284,2.008999,-0.253302,0.359455,-0.004180,0.082577,0.092647,-0.004044
123944457,-1.228757,-0.796945,2.006077,-0.225288,0.376143,-0.010847,0.095017,0.090940,-0.010534
124144209,-1.274313,-0.717616,2.008718,-0.212550,0.400559,0.000909,0.088683,0.097411,0.004305
124344168,-1.312010,-0.640342,2.011337,-0.185617,0.406506,0.007571,0.099072,0.082688,0.010036
124544198,-1.344829,-0.556061,2.010766,-0.157631,0.425844,0.001535,0.108018,0.086447,0.000227
124744211,-1.367364,-0.490939,2.012127,-0.115656,0.377768,0.004458,0.130902,0.012749,0.003294
124944177,-1.382041,-0.440573,2.013642,-0.074016,0.312223,0.005952,0.146952,-0.058425,0.003684
125144172,-1.401875,-0.360330,2.015474,-0.067206,0.354353,0.008021,0.122122,0.000684,0.004954
125344182,-1.421000,-0.269954,2.018406,-0.066049,0.408913,0.013419,0.096608,0.059467,0.010356
125544166,-1.433944,-0.179687,2.020702,-0.051343,0.441613,0.013581,0.091651,0.082114,0.008169
125744184,-1.441187,-0.090195,2.021631,-0.029608,0.456885,0.009708,0.095369,0.081012,0.002196
125944192,-1.443593,0.002279,2.023224,-0.005209,0.471775,0.008091,0.101630,0.079940,-0.000675
126144187,-1.440399,0.092506,2.024668,0.021199,0.469310,0.007679,0.108146,0.058456,-0.000878
126344412,-1.429956,0.179462,2.022248,0.055378,0.457038,-0.004912,0.122533,0.031872,-0.015247
126544173,-1.416053,0.269695,2.024619,0.081407,0.457620,0.002110,0.124427,0.025962,-0.004445
126744242,-1.393880,0.357636,2.024474,0.116100,0.451449,-0.000166,0.135196,0.013815,-0.005962
126944179,-1.370113,0.438142,2.026411,0.136787,0.425196,0.004060,0.128136,-0.018061,-0.000414
127144161,-1.341787,0.517476,2.027511,0.157430,0.405767,0.004672,0.122412,-0.035720,0.000215
127344239,-1.307565,0.598803,2.026990,0.181794,0.399292,0.000699,0.121881,-0.034840,-0.004060
127544184,-1.269990,0.676781,2.026295,0.202831,0.389118,-0.002199,0.118329,-0.038218,-0.006271
